Account Name,Product Family,Billing Address Line 1,Billing City/State,Billing Country,Billing Zip/Postal Code,Latitude,Longitude,Color
(Permanently Closed) Coast City Medical Group Inc,Accent,"4300 Long Beach Blvd","Long Beach, California",United States,90807,33.7683,-118.1956,#442c5c
13433153 Canada Inc. dba Mens Care Clinic,Accent,"2300 Yonge Street, Unit 1705",Toronto,Canada,M4P 1E4,43.6519,-79.3817,#442c5c
1715424 Ontario Inc.,Accent,4230 Sherwoodtowne Blvd,Mississauga,Canada,L4Z 2G6,43.6,-79.65,#442c5c
2208362 Ontario Inc. O/A Wardenwood Health Centre Inc,Accent,549 Bur Oak Ave.,"Markham, Ontario",Canada,L6C 3E5,43.8833,-79.25,#442c5c
221 Degrees Salon And Spa,Accent,221 Lakeshore Road East,Mississauga,Canada,L5G 1G5,43.6,-79.65,#442c5c
2288940 ONT Inc O/A La Unique Laser Centre by Numi,Accent,10025 Hurontario Street Unit 11,Brampton,Canada,L6Z 0E8,43.6833,-79.7667,#442c5c
2590518 Ontario Inc.,Accent,"9581 Weston Rd, Unit 2","Woodbridge, Ontario",Canada,L4H 3A5,43.7791,-79.5961,#442c5c
2605422 ONT. INC. O/A Lighttouch Med Spa,Accent,"145 Royal Crest Court","Markham, Ontario",Canada,L3R 0A2,43.8833,-79.25,#442c5c
2626872 Ontario Ltd,Accent,5027 Spectrum Way,Mississauga,Canada,L4W 5N6,43.6,-79.65,#442c5c
2695070 Ontario LTD,Accent,18 Wynford Dr,North York,Canada,M3C 3S2,43.7598,-79.4112,#442c5c
360 Medical Weight Specialists,Accent,"2255 Ygnacio Valley Road, Suite N","Walnut Creek, California",United States,94598,37.9064,-122.065,#442c5c
4 Ever Young (Boca Raton),Accent,"5458 Town Center Road, Ste 19","Boca Raton, Florida",United States,33486,26.3686,-80.1,#442c5c
4 Serv Med Spa DBA Flawless Med Spa,Accent,"17940 Farmington Rd, Suite 205","Livonia, Michigan",United States,48152,42.3972,-83.3736,#442c5c
457 Bayfront Aesthetics,Accent,1729 Heritage Trail #904,"Naples, Florida",United States,34112,26.15,-81.8,#442c5c
550 Belle Aesthetic Clinique,Accent,401 Miracle Mile #302,"Coral Gables, Florida",United States,33134,25.75,-80.2711,#442c5c
5th Avenue Plastic Surgery,Accent,526 Southeast 5th Avenue,"Delray Beach, Florida",United States,33483,26.4592,-80.0831,#442c5c
615 Aesthetics LLC,Accent,"615 Bakers Bridge Avenue, Ste 145","Franklin, Tennessee",United States,37067,35.9292,-86.8575,#442c5c
9241-2710 Quebec Inc.,Accent,230 Ave. Dorval,Dorval,Canada,H9S3H3,45.4508,-73.752,#442c5c
A Defined Image Medical Wellness Center,Accent,2176 Oak Road,"Snellville, Georgia",United States,30078,33.8583,-84.0064,#442c5c
A Facial and Body Center,Accent,"Cherryvale Mall, Main Level, Suite 103, 7200 Harrison Ave.","Rockford, Illinois",United States,61112,42.2594,-89.0644,#442c5c
A New You Skin and Body Center,Accent,145 Town Lake Parkway,"Woodstock, Georgia",United States,30188,34.1014,-84.5194,#442c5c
Abbott Heath and Wellness,Accent,3 E. Mainstreet,"Salina, Utah",United States,84654,38.9576,-111.8601,#442c5c
Abby Skin Clinic and FFMS Medical Spa,Accent,2345 Willow Pass Road,"Concord, California",United States,94520,37.9791,-122.0313,#442c5c
Abingdon Family Dentistry,Accent,1 Bel Air S. Pkwy,"Bel Air, Harford County, Maryland",United States,21015,39.5357,-76.3485,#442c5c
About Face Cosmetics LLC,Accent,6800 Montgomery Blvd. NE,"Albuquerque, New Mexico",United States,87109,35.1107,-106.61,#442c5c
About Face Medical Aesthetics PLLC,Accent,64 Portsmouth Avenue,"Stratham, New Hampshire",United States,3885,43.0254,-70.9117,#442c5c
About You Family Medicine- Roswell GA,Accent,2325 Log Cabin Drive SE Suite 108,Atlanta,United States,30339,33.7485,-84.3915,#442c5c
Absolute Aesthetics,Accent,8619 Reseda Boulevard Suite 104,Los Angeles,United States,91324,34.0522,-118.2433,#442c5c
Absolute Wellness Clinic Ps,Accent,465 Rainier Blvd N,"Issaquah, Washington",United States,98027,47.5356,-122.0433,#442c5c
Abundant Family Care,Accent,1501 Hughes Road STE 102,"Grapevine, Texas",United States,76051,32.935,-97.0858,#442c5c
Academy medical aesthetics,Accent,561 academy road,Winnipeg,Canada,R3N 0e4,49.8994,-97.1392,#442c5c
Accent Face and Body,Accent,105 Rockledge Ter,"Haledon, New Jersey",United States,7508,40.937,-74.1889,#442c5c
Access Medspa Rejuvenate,Accent,9470 Annapolis Rd,"Lanham, Maryland",United States,20706,38.9669,-76.8619,#442c5c
AcuCare Total Health,Accent,750 Fletcher Dr,"Elgin, Illinois",United States,60123,42.0406,-88.2551,#442c5c
"Adam, Todd MD",Accent,1015 Medical Center Boulevard Suite 1100,"Webster, Texas",United States,77598,29.5386,-95.1194,#442c5c
Adara Body Sculpting and Anti-Aging Center,Accent,"1924 New Jersey 35","Wall Township, New Jersey",United States,7719,40.1673,-74.0961,#442c5c
Adolescent and Women Medical Center,Accent,320 Montauk Highway,"West Islip, New York",United States,11795,40.715,-73.2978,#442c5c
Adorn Aesthetic and Laser Center,Accent,"101 Lattner ct, suite 100","Morrisville, North Carolina",United States,27560,35.8196,-78.823,#442c5c
Adriaan Kriez,Accent,"Bay # 4, 1224 strachan Raod SE""",Medicine Hat,Canada,T1B 4R2,50.0417,-110.6775,#442c5c
Adriana Rodriguez Education and Skin Care Center LLC,Accent,10201 NW 58th St,"Doral, Florida",United States,33178,25.8081,-80.3533,#442c5c
Adv. Laser Body Care Inst,Accent,3155 Book Road #103,"Naperville, Illinois",United States,60564,41.7481,-88.1656,#442c5c
Advanced Ambulatory Surgical Center,Accent,2333 N. Harlem Ave.,Chicago,United States,60707,41.8832,-87.6324,#442c5c
Advanced Body And Laser Center,Accent,115 N Akers Street,"Visalia, California",United States,93291-5122,36.3301,-119.2989,#442c5c
"Advanced Body Solutions, Inc",Accent,"740 Garden View Court, Suite 207","Encinitas, California",United States,92024-2474,33.0444,-117.2717,#442c5c
Advanced Cardiovascular and Vein Center,Accent,1340 Union University Dr,"Jackson, Tennessee",United States,38305,35.6331,-88.8208,#442c5c
Advanced Dermatology And Cosmetic Surgery,Accent,525 Jamestown Street,Philadelphia,United States,19128,39.95,-75.1667,#442c5c
Advanced Dermatology and Skin Cancer Associates,Accent,7203 Goodman Rd,"Olive Branch, Mississippi",United States,38654,34.9603,-89.8417,#442c5c
Advanced Dermatology and Skin Cancer Center,Accent,"1133 College Ave, Ste E230","Manhattan, Kansas",United States,66502,39.1867,-96.5666,#442c5c
Advanced Dermatology Care,Accent,4480 Centerville Road,"White Bear Lake, Minnesota",United States,55127,45.0847,-93.01,#442c5c
"Advanced Dermatology, LLC",Accent,275 Parkway Drive # 521,"Lincolnshire, Illinois",United States,60069,42.1959,-87.9062,#442c5c
Advanced Hair Aesthetics Inc,Accent,13983 Mango Dr,"Del Mar, California",United States,92014,32.955,-117.2639,#442c5c
Advanced Integrative Medical,Accent,6965 South Union Park Center,"Cottonwood Heights, Utah",United States,84047,40.6163,-111.8105,#442c5c
Advanced Laser Body Care Institute,Accent,3155 Book Road,"Naperville, Illinois",United States,60564,41.7481,-88.1656,#442c5c
Advanced Rejuventation Medical Spa,Accent,425 Locust St.,"Burlington, Ontario",Canada,L7S 1T8,43.325,-79.8,#442c5c
Advanced Skin and Laser Center,Accent,3514 N. Power Rd,"Mesa, Arizona",United States,85207,33.4152,-111.8315,#442c5c
Advanced Skin Fitness,Accent,2928 Oak Lawn Ave,Dallas,United States,75219,32.7758,-96.7967,#442c5c
Advanced Specialty Care for Women,Accent,"16111 N. Brinson St., 110","Nampa, Idaho",United States,83687,43.5747,-116.5636,#442c5c
Advantage Primary Care,Accent,7605 Forest Ave Ste 412,"Richmond, Virginia",United States,23229,37.5408,-77.4339,#442c5c
Adyita Parshad,Accent,"331 Oak Manor Dr, Suite 202","Glen Burnie, Maryland",United States,21061,39.16,-76.6106,#442c5c
Aesthetic FX,Accent,12021 Dallas Parkway Suite 600,"Frisco, Texas",United States,75033-3605,33.1414,-96.8131,#442c5c
Aesthetic Laser Academy Dallas,Accent,"17110 Dallas Parkway",Dallas,United States,75248,32.7758,-96.7967,#442c5c
Aesthetic Partners,Accent,1015 West Indiantown Road,"Jupiter, Florida",United States,33458,26.9261,-80.105,#442c5c
Aesthetic Spa Institute,Accent,5428 O'Donovan Drive,"Baton Rouge, Louisiana",United States,70808,30.4495,-91.0934,#442c5c
Aesthetic Treatment Centers,Accent,720 Goodlette-Frank Road #300,"Naples, Florida",United States,34102,26.15,-81.8,#442c5c
Aesthetica Med LLC,Accent,114 N Elizabeth St,Chicago,United States,60607-1666,41.8832,-87.6324,#442c5c
Aesthetica Med Spa,Accent,2221 Camino Del Rio,San Diego,United States,92108,32.715,-117.1625,#442c5c
Aesthetica Medical Spa,Accent,1618 Judson Rd,"Longview, Texas",United States,75601,32.4946,-94.7423,#442c5c
Aesthetics of Yeu,Accent,500 Lexington Ave,"Chapin, South Carolina",United States,29036,34.1657,-81.349,#442c5c
Ageless Aesthetics By Rebecca,Accent,12205 County Line Road,"Madison, Alabama",United States,35758,34.7151,-86.7396,#442c5c
Ageless OM Medspa,Accent,37300 Dequindre Rd,"Sterling Heights, Michigan",United States,48310,42.5803,-83.0303,#442c5c
Ageless Radiance Medspa,Accent,307-1196 Lansdowne Drive,Coquitlam,Canada,V3E  1J7,49.2839,-122.7919,#442c5c
Ageless Skin And Laser,Accent,11 Parke Place,"Sewell, New Jersey",United States,8080,39.7663,-75.1463,#442c5c
Ageless Skin and Laser Center,Accent,222 E Oak Ridge Dr Suite 1700,"Hagerstown, Maryland",United States,21740-7882,39.6396,-77.7189,#442c5c
AgeWell,Accent,3505 Patterson Drive,"Amarillo, Texas",United States,79109,35.1992,-101.8453,#442c5c
Aglow Dermatology,Accent,"150 East 37th Street",New York City,United States,10016,40.713,-74.0072,#442c5c
AI Hair Transplant Miami,Accent,2100 Ponce de Leon #1010,"Coral Gables, Florida",United States,33134,25.75,-80.2711,#442c5c
"Ajala, Yolanda MD",Accent,"8619 Broadway","Pearland, Texas",United States,77584,29.5544,-95.2958,#442c5c
AJC Medical Aesthetics,Accent,"1611 Jones Franklin Road, STE 105","Raleigh, North Carolina",United States,27606-3376,35.7806,-78.6389,#442c5c
Ajliss Medical Group,Accent,445 S. Associated Rd,"Brea, California",United States,92821,33.9233,-117.8889,#442c5c
Alainn Medical Aesthetics,Accent,"18 North Rd., #2D","Bedford, Massachusetts",United States,1730,42.4906,-71.2767,#442c5c
Alaya Health and Wellness,Accent,1062 E Riverside Dr. suite 203,"St. George, Utah",United States,84790,37.0953,-113.5781,#442c5c
Albert Chan M.D.,Accent,2301 Maple Ave,"South Plainfield, New Jersey",United States,7080,40.5744,-74.4148,#442c5c
Albuquerque Vein and Laser Institute PC,Accent,5110 Masthead st. NE suite C,"Albuquerque, New Mexico",United States,87109,35.1107,-106.61,#442c5c
"ALC - Partner, Inc.",Accent,24555 Hallwood Court,"Farmington Hills, Michigan",United States,48335,42.4853,-83.3769,#442c5c
Alchemy MedSpa and Wellness Center,Accent,"200 Manufacturers Rd","Chattanooga, Tennessee",United States,37405,35.0456,-85.2672,#442c5c
AlecXander Medical Spa,Accent,462 Mid Cities Blvd,"Hurst, Texas",United States,76054,32.8236,-97.1793,#442c5c
Alkhalifa Group- Dr. Dawood,Accent,3990 Valley BLVD,"Walnut, California",United States,91789,34.0333,-117.8667,#442c5c
All About You Solutions,Accent,23 Village Inn Road,"Westminster, Massachusetts",United States,1473,42.5458,-71.9111,#442c5c
All About You Wellness and Aesthetics,Accent,907 S. Main St,"Kalispell, Montana",United States,59901,48.1978,-114.3161,#442c5c
All Care Clinics,Accent,"6805 NE Loop 820 ","North Richland Hills, Texas",United States,76180,32.8556,-97.2181,#442c5c
AllanK and Company dba Hair Partners Institute,Accent,4535 Harding Pike STE 302,"Nashville, Tennessee",United States,37205,36.1667,-86.7833,#442c5c
"Allen, Jennifer MD FAAD",Accent,520 Charter Blvd.,"Macon, Georgia",United States,31210-4870,32.8381,-83.6705,#442c5c
Allenby Dermatology,Accent,6290 Linton Boulevard,"Delray Beach, Florida",United States,33484,26.4592,-80.0831,#442c5c
Alliance Family Dentistry,Accent,8801 Tamiami Trail North,"Naples, Florida",United States,34108,26.15,-81.8,#442c5c
Allure De Vie,Accent,6400 N. Northwest Hwy,Chicago,United States,60631,41.8832,-87.6324,#442c5c
"Allure Med Spa, LLC (CLOSED)",Accent,2128 Jefferson Davis Hwy,"Stafford, Virginia",United States,22554,38.422,-77.4082,#442c5c
Allure Medical Spa - Chip Mok,Accent,4773 Lockwood Drive,"Washington Township, Macomb County, Michigan",United States,48094,42.7525,-83.0322,#442c5c
Alma Inc,Accent,485 Half Day Road,"Buffalo Grove, Illinois",United States,60089,42.1519,-87.9668,#442c5c
Alora Ambiance Spa,Accent,109 Cornelia Street,"Boonton, New Jersey",United States,7005,40.9055,-74.4122,#442c5c
Alpha Lan Medspa,Accent,11800 Northfall Lane,"Alpharetta, Georgia",United States,30009-7976,34.0733,-84.2811,#442c5c
Alpine Plastic Surgery,Accent,5405 S Adams Ave Pkwy,"Ogden, Utah",United States,84405,41.2228,-111.9704,#442c5c
Alshifa Medical Group,Accent,3605 Agneta Court,"Elk Grove, California",United States,95758,38.4383,-121.3819,#442c5c
Alter Ego Health and Beauty Lounge,Accent,3539 10th Avenue West,Vancouver,Canada,V6T 2E9,49.2636,-123.1386,#442c5c
"Alternative Health Care, LLC",Accent,"8788 Ruffian Ln, Suite C","Newburgh, Indiana",United States,47630,37.9467,-87.4036,#442c5c
Alternatives Inc.,Accent,17 Sherington Drive,"Bluffton, South Carolina",United States,29910,32.2372,-80.8606,#442c5c
"Alternity Healthcare, LLC",Accent,"639 Park Rd, Suite 200","West Hartford, Connecticut",United States,6107,41.7678,-72.7539,#442c5c
Amanda Hollingsworth DO,Accent,1700 N Oregon St Ste 530,"El Paso, Texas",United States,79902,31.7903,-106.4233,#442c5c
Amber Bocknek Medicine Professional Corp.,Accent,411 Fairway Garden,"Newmarket, Ontario",Canada,L3X 1B7,44.0602,-79.4558,#442c5c
Amici Aesthetic Med Spa,Accent,355 E. Parkwood Ave,"Friendswood, Texas",United States,77546,29.5285,-95.2,#442c5c
"Amour Medical David G. Alonso, MD",Accent,564 Rio Lindo Ave Suite 100,"Chino, California",United States,95926-1852,34.0178,-117.69,#442c5c
"Amy Chow, MD Rejuvenation Practice",Accent,296 NE Tudor Road,"Lee's Summit, Missouri",United States,64086,38.9225,-94.3742,#442c5c
Anew visage,Accent,108 N. 11th Street,"Morehead City, North Carolina",United States,28557,34.7278,-76.7467,#442c5c
Anita's Salon and Spa,Accent,4 Slipneedle Street,Brampton,Canada,L6S 6L5,43.6833,-79.7667,#442c5c
Ann Long MD,Accent,139 Centre Street Suite 310,New York City,United States,10013,40.713,-74.0072,#442c5c
Ann Micheals,Accent,400 Newport Center Dr.,"Newport Beach, California",United States,92660,33.6167,-117.8975,#442c5c
Anne Maaden Cosmetic and Laser Clinic,Accent,1460 Gordon St. S,Guelph,Canada,N1L 1C8,43.5448,-80.2481,#442c5c
Anne Maaden Cosmetic Laser And Day Spa,Accent,1460 Gordon Street South,Guelph,Canada,N1L 1C8,43.5448,-80.2481,#442c5c
AnneMichelle Hair,Accent,6795 U.S. 9,"Rhinebeck (village), New York",United States,12572,41.9275,-73.9089,#442c5c
Antiaging medical and laser clinic,Accent,2200 W 4th Ave,Vancouver,Canada,V6K 1N8,49.2636,-123.1386,#442c5c
ANU Medspa,Accent,1229 E 33rd St,"Edmond, Oklahoma",United States,73013,35.65,-97.4667,#442c5c
Apex Mens Health Clinic,Accent,7828 Wakeley Plaza,"Omaha, Nebraska",United States,68114,41.25,-96,#442c5c
APOLLO HEALTH PLLC,Accent,5401 32nd Avenue,"Gig Harbor, Washington",United States,98335,47.3351,-122.5828,#442c5c
"Apollo Wellness Group, LLC dba Back to Health",Accent,5005 E Stop 11 Rd,Indianapolis,United States,46237-9447,39.791,-86.148,#442c5c
Applied Med Systems,Accent,5781 Bridge Street,"East Syracuse, New York",United States,13057,43.0644,-76.0703,#442c5c
Ardalan Keshtkar DDS INC,Accent,2104 Heritage Drive,"Roseville, California",United States,95678,38.7525,-121.2894,#442c5c
Ardsley Dental Spa,Accent,"1053 Saw Mill River Rd., #107","Ardsley, New York",United States,10502,41.0086,-73.8412,#442c5c
Arijana Spa Inc.,Accent,237 King St. West Apt #402,"Cambridge, Ontario",Canada,N3H 5L2,43.3583,-80.3139,#442c5c
Arion Laser Centre Inc.,Accent,1065-24th. Street,West Vancouver,Canada,V7V-4H1,49.3382,-123.1681,#442c5c
Arizona Medical and Natural Health Clinic,Accent,34406 N 27th Dr Bldg 2 Ste 108,"Phoenix, Arizona",United States,85085,33.45,-112.0667,#442c5c
"Arkansas Progressive Medicine, PLLC",Accent,"1000 East Matthews Avenue, STE E","Jonesboro, Arkansas",United States,72401,35.8384,-90.7105,#442c5c
Arlani Integrative Medicine,Accent,244 W Vine St 232,"Murray, Utah",United States,84107,40.6525,-111.8933,#442c5c
Arlington Plastic Surgery,Accent,3300 Matlock Road,"Arlington, Texas",United States,76015,32.7356,-97.1071,#442c5c
Arlington Preventative Care Medical,Accent,1800 W Pioneer Pkwy,"Arlington, Texas",United States,76013,32.7356,-97.1071,#442c5c
Aroma Beauty,Accent,2702 W 4th Ave,Vancouver,Canada,V6K 1R1,49.2636,-123.1386,#442c5c
Artisans of Medicine NY,Accent,466 Bay Ridge Ave,Brooklyn,United States,11220,40.6925,-73.991,#442c5c
Artistic Spa,Accent,492 Upper Queen St.,"London, Ontario",Canada,N6C 3T9,42.9837,-81.2497,#442c5c
Asa Medical,Accent,235 E Washington Ave,"Ashburn, Georgia",United States,31714-5224,31.7044,-83.6539,#442c5c
Ashbrook Aesthetics,Accent,"5514 NE 107th Ave, suite 202","Vancouver, Washington",United States,98662,45.6333,-122.6,#442c5c
"Asher, David T., MD",Accent,1110 W. La Palma Avenue # 1,"Anaheim, California",United States,91801,33.8345,-117.9156,#442c5c
Ashley Frer D.C. LTD,Accent,"3221 N. Sheffield, Unit C-1S",Chicago,United States,60657-8510,41.8832,-87.6324,#442c5c
Ashwani Singh,Accent,11528 Jasper Avenue NW,Edmonton,Canada,T5K 0M8,53.5445,-113.4909,#442c5c
Aspen Dermatology,Accent,114 E 800 N,"Spanish Fork, Utah",United States,84660,40.1044,-111.64,#442c5c
Associated Dermatology,Accent,50 S Last Chance Gulch St.,"Helena, Montana",United States,59601,46.5958,-112.027,#442c5c
Athena Salon and Spa,Accent,20229 N 67th Avenue,"Glendale, Arizona",United States,85308,33.5386,-112.1837,#442c5c
Athena Theodosantos,Accent,"2600 Westhall Lane ","Maitland, Florida",United States,32751,28.6271,-81.3591,#442c5c
Atlanta Urogynecology,Accent,Dr. John Miklos,"Alpharetta, Georgia",United States,30005,34.0733,-84.2811,#442c5c
Atlantic Plastic Surgery,Accent,106 Milford St Ste 307,"Salisbury, Maryland",United States,0 3801,38.3656,-75.5992,#442c5c
Attractionz,Accent,4620 N. Flecha Dr.,"Tucson, Arizona",United States,85718,32.2217,-110.9264,#442c5c
Aurora Skin and Laser Clinic,Accent,3566 Sable Ave,"Richmond, British Columbia",Canada,V7E2A4,49.1667,-123.1333,#442c5c
Ava MD,Accent,9915 Santa Monica Blvd,"Beverly Hills, California",United States,90212,34.0803,-118.4047,#442c5c
Avalon Medical Spa,Accent,77 Wolcott Ave,"Dartmouth, Massachusetts",United States,02747-2459,41.6144,-70.9697,#442c5c
Avante Laser and Aesthetics,Accent,7315 Edmonds Street,Burnaby,Canada,V3N-1A7,49.2432,-122.9742,#442c5c
"Avanti Aesthetic Solutions, LLC",Accent,809 West Harwood Road,"Hurst, Texas",United States,76054-6233,32.8236,-97.1793,#442c5c
"Ave Medical Laser Spa, LLC.",Accent,"1201 4th St. ","Sioux City, Iowa",United States,51101-2139,42.4981,-96.3956,#442c5c
Awake Health,Accent,201 S Main St.,"Ellensburg, Washington",United States,98926,46.9971,-120.5451,#442c5c
Awaken Cosmetic and Aesthetic Wellness Spa,Accent,1902 E 53rd St,"Anderson, Indiana",United States,46013,40.1079,-85.6782,#442c5c
B Medical Spa,Accent,3033 5th Avenue Suite 105,San Diego,United States,92103,32.715,-117.1625,#442c5c
"Baban Mahal, DDS",Accent,5280 Douglas Blvd #100,"Granite Bay, California",United States,95746,38.7486,-121.1797,#442c5c
BAILEY COSMETICS,Accent,"9236 Main Street, STE 3C","Woodstock, Georgia",United States,30188,34.1014,-84.5194,#442c5c
"Bala Aesthetics And Medispa, LLC",Accent,"2021-B Emmorton Road","Bel Air, Harford County, Maryland",United States,21015,39.5357,-76.3485,#442c5c
Bamboo Leaf Spa,Accent,510 North 13th Avenue,"Upland, California",United States,91786-4973,34.0999,-117.647,#442c5c
Bare Bold,Accent,31 Mahogany Way SE,Calgary,Canada,T3M 1N4,51.0473,-114.058,#442c5c
Bare Med Spa,Accent,1230 Walnut St.,"Kansas City, Missouri",United States,64106-2116,39.0997,-94.5783,#442c5c
Bauman Medical Hair Transplant and Hair Loss Treatment Center,Accent,1450 S Dixie Hwy,"Boca Raton, Florida",United States,33432,26.3686,-80.1,#442c5c
Bavin’s beauty,Accent,3 Breckonwood St,"Caledon, Ontario",Canada,L7C 4G6,43.7466,-79.8328,#442c5c
Baxt Cosmedical,Accent,Dr. Sherwood Baxt,"Paramus, New Jersey",United States,7652,40.9473,-74.071,#442c5c
Bay Pointe Dermatology,Accent,"3850 Southwest Bird Road, Ste 104","Arcadia, Florida",United States,34269,27.215,-81.859,#442c5c
BE Lifestyle MedSpa,Accent,8322 Bellona Ave.,"Towson, Maryland",United States,21204-2077,39.3931,-76.6094,#442c5c
Be Well Family Care,Accent,"11495 N Pennsylvania St","Carmel, Indiana",United States,46032-5636,39.9667,-86.1,#442c5c
Be Whole Wellness,Accent,"7801 South I-35 E, Suite 301A","Corinth, Texas",United States,76210,33.1542,-97.0653,#442c5c
Beata Styka MD,Accent,12130 S Harlem Ave ,"Palos Heights, Illinois",United States,60463,41.6653,-87.7972,#442c5c
Beaumont Health and Wellness Clinic,Accent,"229 Dowlen Rd., Suite 13B","Beaumont, Texas",United States,77706-1905,30.08,-94.1267,#442c5c
Beautiful U,Accent,495 W Main St,"Lehi, Utah",United States,84043,40.3879,-111.8492,#442c5c
Beautiful You by Ada,Accent,5030 Champion Blvd.,"Boca Raton, Florida",United States,33496,26.3686,-80.1,#442c5c
Beautify at Ashland Medical Specialists,Accent,830 North Ashland Avenue,Chicago,United States,60622,41.8832,-87.6324,#442c5c
Beauty and Health by Liz,Accent,"6600 N Oracle Rd","Tucson, Arizona",United States,85704,32.2217,-110.9264,#442c5c
Beauty and Wellness on Olive,Accent,826 Bellerive Manor Drive,"Creve Coeur, Missouri",United States,63141,38.6672,-90.4425,#442c5c
Beauty Bar Laser Clinic,Accent,675 Charles Street,Toronto,Canada,M4Y 2B2,43.6519,-79.3817,#442c5c
Beauty by Blume,Accent,"14074 Trade Center Dr, STE 226","Fishers, Indiana",United States,46038,39.9561,-86.0128,#442c5c
Beauty Connections,Accent,"3901 Northwest 79th Avenue, Ste 219","Doral, Florida",United States,33166,25.8081,-80.3533,#442c5c
Beauty Loft Med Spa,Accent,116 E Sugarland Hwy,"Clewiston, Florida",United States,33440,26.7493,-80.9469,#442c5c
Beauty Medica,Accent,2616 Westgate Street,Houston,United States,77098-3023,29.7628,-95.3831,#442c5c
"Beauty Redefined, LLC",Accent,2505 Samaritan Drive #401,"San Jose, California",United States,95124,37.3333,-121.9,#442c5c
"Beauty Sculpt Spa, LLC",Accent,1109 Nolana Ave. Suite 302,"McAllen, Texas",United States,78504-3796,26.1967,-98.2357,#442c5c
Beauty Secrets Medic SPA,Accent,11505 Bingham,"El Paso, Texas",United States,79936,31.7903,-106.4233,#442c5c
Beauty Zone Clinic,Accent,7740 West North Ave,"Elmwood Park, Illinois",United States,60707,41.9225,-87.8156,#442c5c
BeautyBorn MedSpa,Accent,2200 East Camelback Road,"Phoenix, Arizona",United States,85016,33.45,-112.0667,#442c5c
Beckerman Women's Health,Accent,"11140 Rockville Pike, Ste 660","Rockville, Maryland",United States,20852,39.0836,-77.1483,#442c5c
Beer Dermatology (WPB),Accent,"1500 North Dixie Highway, Ste 305","West Palm Beach, Florida",United States,33401,26.7144,-80.0549,#442c5c
Behr Laser and Skin Care Center,Accent,"1125 E Spruce Ave, Ste 207","Fresno, California",United States,93720,36.7317,-119.7859,#442c5c
Bell Chiropractic,Accent,4069 E. Galbraith Rd.,Cincinnati,United States,45236,39.1037,-84.5136,#442c5c
Bell Medical Aesthetics,Accent,#3 - 419 Kensington Ave,Estevan,Canada,S4A 2B4,49.1468,-102.9915,#442c5c
Bella Body Image,Accent,6465 S. Yale,"Tulsa, Oklahoma",United States,74136,36.1314,-95.9372,#442c5c
Bella Medica Laser Center,Accent,618 S. Rt. 31 Ste 1,"McHenry, Illinois",United States,60050,42.3392,-88.2817,#442c5c
Bella Rose Medispa,Accent,1395 Liberty St. SE,"Salem, Oregon",United States,97302,44.939,-123.0393,#442c5c
Belladonna Day Spa,Accent,2900 Magazine St,New Orleans,United States,70115,29.9518,-90.0746,#442c5c
Bellair Laser Clinic,Accent,3 McAlpine Street,Toronto,Canada,M5R 3T5,43.6519,-79.3817,#442c5c
Bellaire MedClinic,Accent,7814 Bellaire Boulevard,Houston,United States,77036,29.7628,-95.3831,#442c5c
Bellatudo Skin and Wellness Center,Accent,"12721 Newport Avenue, Suite 2","Tustin, California",United States,92780,33.7397,-117.8136,#442c5c
"Bellezza Laser Aesthetics, PLLC",Accent,"2470 Patterson Road, Suite 8","Grand Junction, Colorado",United States,81505,39.0667,-108.5667,#442c5c
"Bellina / Vanguard Medical, Inc",Accent,9619 N. Hayden Rd #115,"Scottsdale, Arizona",United States,85258,33.5,-111.9333,#442c5c
Belo Skin Care Clinic- CLOSED,Accent,1160 N. Central Ave. Ste. 201,"Glendale, California",United States,91202-3063,34.1481,-118.2464,#442c5c
Benchmark Pulmonary Center,Accent,844 Central Blvd,"Brownsville, Texas",United States,78520,25.9303,-97.4844,#442c5c
Bengtson Center for Aesthetics and Plastic Surgery,Accent,2155 E Paris Ave SE #100,"Grand Rapids, Michigan",United States,49546,42.9655,-85.6702,#442c5c
Beri Esthetique,Accent,3200 Sunset Avenue - Suite 107,"Ocean Township, Monmouth County, New Jersey",United States,7712,40.2544,-74.0319,#442c5c
"Bernstein, Benjamin MD",Accent,18 Hickory Knoll Ct,"Luthersville, Georgia",United States,21093,33.2102,-84.7448,#442c5c
Best Self,Accent,6751 Eagle Ridge Boulevard,"Lakeland, Florida",United States,33813,28.0442,-81.949,#442c5c
Beverly Hills Skin Care,Accent,6501 Foothill Blvd Suite 202,"Sunland-Tujunga, Los Angeles",United States,91042,34.2522,-118.2875,#442c5c
Beyond Aesthetics,Accent,7617 Little River Turnpike #900,"Annandale, Virginia",United States,22003,38.8342,-77.2114,#442c5c
Beyond Beauty Brow Bar,Accent,"16564 Cleveland St","Redmond, Washington",United States,98052,47.6749,-122.124,#442c5c
BFANCY,Accent,34 Glenmanor Way,"Thornhill, Ontario",Canada,L4J 3E5,43.8159,-79.4263,#442c5c
Bi Yu Tang Inc.,Accent,1177 Central Parkway West ,Mississauga,Canada,L5C 4P3,43.6,-79.65,#442c5c
"Bibicheff, Karina MD",Accent,"Vita Ageless Medical Aesthetic","Old Brookville, New York",United States,11545,40.8291,-73.607,#442c5c
Bio International Hair and Skin Clinic BC Limited - Richmond,Accent,5266 Grimmer St,Burnaby,Canada,V5H 2H2,49.2432,-122.9742,#442c5c
Bio International Laser Clinic Langley Inc,Accent,20019 83A Avenue,"Langley, British Columbia",Canada,V2Y 2A7,49.0813,-122.6428,#442c5c
Bio Vital Mens Clinic,Accent,3808 Auburn Boulevard #41,"Sacramento, California",United States,95821,38.5556,-121.4689,#442c5c
BioBalance Health,Accent,851 North Spoede Road Suite 100,"Creve Coeur, Missouri",United States,63141,38.6672,-90.4425,#442c5c
BioEdge Medical,Accent,9327 Fairway View Place,"Rancho Cucamonga, California",United States,91730,34.1233,-117.5794,#442c5c
BioSkin,Accent,P.O. Box 3239,"Sugar Land, Texas",United States,77487,29.5971,-95.621,#442c5c
BioSkin Laser,Accent,105 E 37th Ste 2,New York City,United States,10016,40.713,-74.0072,#442c5c
BioWell,Accent,"218 Rhett Ave SW","Huntsville, Alabama",United States,35801-4535,34.7295,-86.5853,#442c5c
Birmingham Skin and Hair Aesthetics,Accent,751 Chestnut St. STE 102,"Birmingham, Michigan",United States,48009,42.5467,-83.2114,#442c5c
Biz Medspa,Accent,42650 Christy Street #200,"Fremont, California",United States,94538,37.5483,-121.9886,#442c5c
Bladed Inc,Accent,1500 W. Oak St. #500,"Zionsville, Indiana",United States,46077,39.9503,-86.2669,#442c5c
"Blessings By Design, LLC",Accent,"105 Ridgecrest Avenue Street, STE 3B","Nixa, Missouri",United States,65714,37.0453,-93.2989,#442c5c
"Bloch, Steven MD",Accent,1160 Park Avenue W,"Highland Park, Illinois",United States,60035,42.1825,-87.8069,#442c5c
Bloom Med Spa,Accent,5725 Oleander,"Wilmington, North Carolina",United States,28403,34.2233,-77.9122,#442c5c
Blooming Lemon Wellness and Aesthetics,Accent,471 Fremont road #4,"Laramie, Wyoming",United States,82072,41.3167,-105.5833,#442c5c
Blue Water Surgical Center Ltd.,Accent,704 Mara Street Suite 106,"Point Edward, Ontario",Canada,N7V 1X4,42.9931,-82.4083,#442c5c
Body Beautiful,Accent,3303 47th Ave,"Kenosha, Wisconsin",United States,53144,42.5822,-87.8456,#442c5c
"Body Beautiful Laser Medi Spa dba The New Crossroads, LLC",Accent,5200 Washington Ave,"Racine, Wisconsin",United States,53406,42.7261,-87.8058,#442c5c
Body Beautiful Medi-Spa And Salon,Accent,108 East Main Street,"Whiteville, North Carolina",United States,28472,34.33,-78.7044,#442c5c
Body Concepts Health Spa,Accent,"2711 N Loop 1604 W",San Antonio,United States,78258,29.4167,-98.5,#442c5c
Body del Sol,Accent,1648 E Herndon Ave,"Fresno, California",United States,93720,36.7317,-119.7859,#442c5c
Body Essence LLC,Accent,20 Bobby's Way #104,"Washington, Virginia",United States,24401,38.7135,-78.1598,#442c5c
Body Lounge Park Cities,Accent,6805 Hillcrest Ave Suite 208,Dallas,United States,75205,32.7758,-96.7967,#442c5c
Body Sculpting Center,Accent,2255 N. Scottsdale Rd,"Scottsdale, Arizona",United States,85257,33.5,-111.9333,#442c5c
Body Sculpting Center,Accent,1378 Freeport Road  Suite 2A,Pittsburgh,United States,15238,40.4422,-79.995,#442c5c
"Body Trends The Electro Spa, LLC",Accent,8603 S. Western,Oklahoma City,United States,73170,35.4822,-97.535,#442c5c
"Bodysculpt and Refining Equipment, LLC",Accent,930 E Warner Rd,"Chandler, Arizona",United States,85225,33.3023,-111.8401,#442c5c
"Boise Image Enhancement Centre, Inc.",Accent,9382 W. Overland Road,"Boise, Idaho",United States,83709,43.6158,-116.2016,#442c5c
Bonakdar Aesthetics,Accent,"20321 Irvine Avenue, Suite F3","Newport Beach, California",United States,92660,33.6167,-117.8975,#442c5c
Boro Park Med Spa LLC,Accent,5211 15th Ave,Brooklyn,United States,11219-1460,40.6925,-73.991,#442c5c
"Boss, William K., MD",Accent,20 Prospect Avenue # 600,"Hackensack, New Jersey",United States,7601,40.8894,-74.0457,#442c5c
Boston Dermatology and Cosmetic Surgery Center,Accent,Boston Dermatology & Cosmetic Surgery Center,"Brookline, Massachusetts",United States,2445,42.3317,-71.1217,#442c5c
Boteya USA International Inc.,Accent,5 Arctic Ct,"Farmingville, New York",United States,11738,40.8425,-73.0436,#442c5c
"Bottone, Robert M.D.",Accent,156 Cherry Street,"New Canaan, Connecticut",United States,6840,41.1468,-73.4949,#442c5c
Boudreaux Dental Group LLC,Accent,175 Lee Street,"Lumberton, Texas",United States,77657,30.2639,-94.2019,#442c5c
"Bouret, Lissette, M.D.",Accent,"295 Palmas Inn Way, PMB 109","Humacao, Puerto Rico",United States,791,18.1497,-65.8275,#442c5c
"Brent Moelleken, MD",Accent,120 South Spalding Drive #110,"Beverly Hills, California",United States,90212,34.0803,-118.4047,#442c5c
Breslow Center for Plastic Surgery,Accent,1 West Ridgewood Ave.,"Paramus, New Jersey",United States,7652,40.9473,-74.071,#442c5c
Brickell Cosmetic Center and Spa,Accent,1913 Southwest 3rd Avenue,Miami,United States,33129,25.7751,-80.1947,#442c5c
Bridgeport Laser and Wellness Center,Accent,7180 SW Hazelfern Rd,"Tigard, Oregon",United States,97224-7762,45.4264,-122.7662,#442c5c
"Britt-Kimmins, Allison MD",Accent,Chadds Ford Dermatology,"Glen Mills, Pennsylvania",United States,19342,39.9195,-75.4914,#442c5c
"Brodd And Sandmon Laser, LLC. DBA Rejuvenate Medi-Spa",Accent,1411 Boulder Ct.,"Hudson, Wisconsin",United States,54016,44.9792,-92.7571,#442c5c
"Broder, Lawrence MD",Accent,351 Cypress Creek RD #204,"Cedar Park, Texas",United States,78613,30.5067,-97.8303,#442c5c
"Brookridge Internal Medicine Associates, PA",Accent,300 N 3rd St.,"Longview, Texas",United States,75601-6505,32.4946,-94.7423,#442c5c
"Brooks, Don",Accent,2403 N Broadway St. Ste D,"Poteau, Oklahoma",United States,74953,35.0586,-94.63,#442c5c
Bruce Sanderson MD,Accent,"500 S. University, Suite 701","Little Rock, Arkansas",United States,72205,34.7361,-92.3311,#442c5c
Brunswick Internal Medicine Group,Accent,3270 NJ-27 #1300,"Kendall Park, New Jersey",United States,8824,40.4134,-74.5625,#442c5c
Buckhead Plastic Surgery,Accent,183 Mystic Pl NE,Atlanta,United States,30342-2520,33.7485,-84.3915,#442c5c
"Bulan, Erwin M.D.",Accent,75 Main Street,"Millburn, New Jersey",United States,7041,40.7245,-74.3044,#442c5c
Burbank Plastic Surgery Center,Accent,2301 West Alameda Avenue,"Burbank, California",United States,91506,34.1821,-118.3075,#442c5c
Burlington Medical Aesthetics,Accent,"1900 Appleby Line","Burlington, Ontario",Canada,L7L 0B7,43.325,-79.8,#442c5c
Calabasas Dental Spa,Accent,4937 Las Virgenes Rd # 203,"Calabasas, California",United States,91302,34.1512,-118.6498,#442c5c
Calabasas Dermatology Center,Accent,23501 Park Sorrento STE 216,"Calabasas, California",United States,91302,34.1512,-118.6498,#442c5c
Calgary Vein Laser,Accent,515-10333 Southport Road SW,Calgary,Canada,T2W 3X6,51.0473,-114.058,#442c5c
Calidora Skin Clinic,Accent,999 N Northlake Way,Seattle,United States,98103,47.6032,-122.3303,#442c5c
Calidora Skin Clinics,Accent,999 N. Northlake Way,Seattle,United States,98103,47.6032,-122.3303,#442c5c
"Calidora Skin Clinics, Inc - El Segundo",Accent,999 N. Northlake Way,Seattle,United States,98103,47.6032,-122.3303,#442c5c
"Calidora Skin Clinics, Inc - Marina Del Rey",Accent,999 N Northlake Way,Seattle,United States,98103,47.6032,-122.3303,#442c5c
Calm Waters Day Spa,Accent,37 Whitbread Ave,"Bolton, Ontario",Canada,L7E 1L7,43.8972,-79.7381,#442c5c
"Calvert Enterprises, Inc.",Accent,1048 Irvine Avenue,"Newport Beach, California",United States,92660-4602,33.6167,-117.8975,#442c5c
Calvert Rejvenations,Accent,485 Carlisle Drive,"Herndon, Virginia",United States,20170-5602,38.9697,-77.3839,#442c5c
Canmore Medical Clinic,Accent,901 B Main Street,"Canmore, Alberta",Canada,T1W 2B4,51.0837,-115.368,#442c5c
Caravel Health DPC,Accent,"1467 Ford Street","Redlands, California",United States,92373,34.0547,-117.1825,#442c5c
Cardinal Age Management Medicine Institute,Accent,4721 D Sunset Blvd,"Lexington, South Carolina",United States,29072,33.9811,-81.2308,#442c5c
Cardiovascular Institute of the Shoals,Accent,2095 Florence Boulevard,"Florence, Alabama",United States,35630,34.8203,-87.6628,#442c5c
Caren Kalisch RN  -,Accent,12 Greenville Street - Unit 106,"Greenwich, Connecticut",United States,6831,41.0389,-73.6136,#442c5c
"Carlo Honrado, MD",Accent,"2080 Century Park East, Suite 1701",Los Angeles,United States,90067,34.0522,-118.2433,#442c5c
Carole Roose,Accent,303 chemin de la Grande Cote,Rosemère,Canada,J7A 2X5,45.6369,-73.8,#442c5c
Carole Sauignac,Accent,22 Place De Chatenois,"Lorraine, Quebec",Canada,J6Z 4K3,45.6833,-73.7833,#442c5c
Casbah Day Spa,Accent,2970 King George Blvd.,"Surrey, British Columbia",Canada,V4P 1A2,49.1046,-122.8235,#442c5c
Cash Medical Clinic,Accent,3226 W Alberta Road,"Edinburg, Texas",United States,78539,26.3042,-98.1639,#442c5c
Cassileth Mueller Cosmetic Medicine,Accent,"436 N. Bedford Drive, Ste 103","Beverly Hills, California",United States,90210,34.0803,-118.4047,#442c5c
Cassileth Plastic  Surgery,Accent,"436 N Bedford Dr #103,","Beverly Hills, California",United States,90210,34.0803,-118.4047,#442c5c
Cassis Dermatology And Aesthetic Center,Accent,"9301 DAYFLOWER ST, SUITE 100","Prospect, Kentucky",United States,40059,38.3446,-85.5964,#442c5c
Catania Hospitality Group-Cape Codder Resort And Spa,Accent,141 Falmouth Road,"Hyannis, Massachusetts",United States,2601,41.6528,-70.2833,#442c5c
Cedars Sinai Medical Group,Accent,200 N Robertson Blvd STE 202,"Beverly Hills, California",United States,90211,34.0803,-118.4047,#442c5c
Cedars-Sinai Medical Care Foundation,Accent,"8501 Wilshire Blvd., #140","Beverly Hills, California",United States,90211,34.0803,-118.4047,#442c5c
Celestial Rejuvenation,Accent,209 7159 stride Ave,Burnaby,Canada,V3n1t8,49.2432,-122.9742,#442c5c
Center for Dermatology and Laser Surgery,Accent,"9427 SW Barnes Road, Ste 495","Portland, Oregon",United States,97225,45.52,-122.6819,#442c5c
Center for Skin Wellness,Accent,6771 Professional Pkwy W Suite 203,"Sarasota, Florida",United States,34240,27.3372,-82.5353,#442c5c
Center For True Harmony Wellness & Medicine,Accent,2152 S Vineyard STE,"Mesa, Arizona",United States,85210,33.4152,-111.8315,#442c5c
Central Park South Dermatology,Accent,200 Central Park South #108,New York City,United States,10019,40.713,-74.0072,#442c5c
Centre de Sante du Corps et Ame,Accent,192 Fraser,Rivière-du-Loup,Canada,G5R 1C8,47.8378,-69.5391,#442c5c
Centro Clinico,Accent,32 Hine Street Suite 103,"Paterson, New Jersey",United States,7503,40.9147,-74.1628,#442c5c
"Chang, Areia MD",Accent,"5030 Camino De La Siesta, Suite 101",San Diego,United States,92108,32.715,-117.1625,#442c5c
"Charles K Dahlgren, MD Corp",Accent,"1995 Errecart Blvd., Suite 109","Elko, Nevada",United States,89801,40.8333,-115.7667,#442c5c
Charles Medical Group,Accent,"200 Glades Rd","Boca Raton, Florida",United States,33432,26.3686,-80.1,#442c5c
Charleston Medical Spa,Accent,1950 Maybank Highway STE A,"Charleston, South Carolina",United States,29412,32.7831,-79.9344,#442c5c
Chelan Valley Skincare,Accent,131 South Apple Blossom Drive,"Chelan, Washington",United States,98816,47.8428,-120.0214,#442c5c
"Chemical Dependency Treatment Associates, Inc",Accent,805 University Avenue,"Sacramento, California",United States,95825,38.5556,-121.4689,#442c5c
"Chiropractic Wellness Center, LLC",Accent,4301 E 31st,"Tulsa, Oklahoma",United States,74135,36.1314,-95.9372,#442c5c
Chisholm and Smith Medical Wellness Center,Accent,4125 Austin Ave. St A,"Waco, Texas",United States,76710,31.5568,-97.13,#442c5c
"Chiu J. Yuan, M.D.",Accent,475 N. First St.,"San Jose, California",United States,95112,37.3333,-121.9,#442c5c
Chocolat'  Med Spa,Accent,509 7th St.,"Santa Rosa, California",United States,95401,38.4486,-122.7047,#442c5c
"Christopher Nguyen Do, M.D., A Professional Corp.",Accent,1569 Lexann Avenue,"San Jose, California",United States,95121,37.3333,-121.9,#442c5c
Chronic Conditions of SLO,Accent,"628 California Blvd","San Luis Obispo, California",United States,93401,35.2742,-120.6631,#442c5c
"Chrysalis, Inc",Accent,522 Alabama St,"Bristol, Tennessee",United States,37601,36.5691,-82.1975,#442c5c
Ciao Bella Med Spa,Accent,"5575 Frisco Square Blvd","Frisco, Texas",United States,75034-3309,33.1414,-96.8131,#442c5c
Ciao Bella Medical Center and Spa,Accent,175 Jefferson Parkway,"Newnan, Georgia",United States,30263,33.3764,-84.7886,#442c5c
Cinderella Beauty,Accent,406-4603 Kingsway,Burnaby,Canada,V5H 4M4,49.2432,-122.9742,#442c5c
"Cirillo Cosmetic Dermatology Spa, LLC",Accent,648 Broad Acres Rd,"Penn Valley, Pennsylvania",United States,19072,40.0223,-75.2613,#442c5c
CK2 Beauty Skin Care Center Inc.,Accent,5524 7th Ave,Brooklyn,United States,11220,40.6925,-73.991,#442c5c
Clear Sky Medical,Accent,9085 E Mineral Circle,"Centennial, Colorado",United States,84111,39.5964,-104.8439,#442c5c
Cleopatra Lasermed and Massage,Accent,152 Cleopatra Dr,Ottawa,Canada,K2G 5X2,45.4204,-75.6924,#442c5c
Cleveland Health Group,Accent,"6571 Brecksville Rd","Independence, Ohio",United States,44131-4849,41.3819,-81.6408,#442c5c
Clinic of Obstetrics And Gynecology,Accent,"8905 W Lincoln Ave","West Allis, Wisconsin",United States,53227-2468,43.0081,-88.0183,#442c5c
Clinique de dermatlogie esthetique de Montreal,Accent,"2040 Marcel-Laurin Blvd., Suite 260",Montreal,Canada,H4R 1J9,45.5091,-73.5534,#442c5c
Clinique dentaire Raymond,Accent,"1797 Route du Carrefour",Val-des-Monts,Canada,J8N 7M7,45.65,-75.6667,#442c5c
Clinique Dermato Laser,Accent,1265 boul Saint-Jean-Baptiste,Pointe-aux-Trembles,Canada,H1B 4A2,45.6413,-73.49,#442c5c
Clinique Esthederma Laser Inc.,Accent,1 Place Du Commerce,"Verdun, Quebec",Canada,H3E 1A2,45.4619,-73.5671,#442c5c
Clinique of Plastic Surgery,Accent,240 1st. Street Ave. South,"St. Petersburg, Florida",United States,33701-4316,27.7731,-82.64,#442c5c
Clinique Plenitude,Accent,23 Rue Cate,Sherbrooke,Canada,J1J 2N9,45.4,-71.9,#442c5c
"Clinton Plastic Surgery, LLC",Accent,"7191 Cahaba Valley Road, Suite 200","Birmingham, Alabama",United States,35242-6402,33.525,-86.813,#442c5c
Clovis Laser Center,Accent,255 W. Bullard Ave,"Clovis, California",United States,93612-0861,36.8253,-119.7031,#442c5c
Club Medica Aesthetics Inc.,Accent,36 Timberland Drive,"Woodbridge, Ontario",Canada,L4H 1Y1,43.7791,-79.5961,#442c5c
Coastal Aesthetics,Accent,1537 US Route 1,"Cape Neddick, Maine",United States,03902-7432,43.1735,-70.6121,#442c5c
"Coastal Dermatology, P.C.",Accent,55 Willow Street,"Mystic, Connecticut",United States,06355-2636,41.3557,-71.9656,#442c5c
Coastal Esthetics And Wellness,Accent,3421 N. 12th Ave,"Pensacola, Florida",United States,32503-4008,30.4069,-87.2176,#442c5c
Coastal Eye Associates PLLC,Accent,555 E. Medical Center Blvd,"Webster, Texas",United States,77598-4367,29.5386,-95.1194,#442c5c
Colair Beauty Lounge and Medspa,Accent,1440 S Higley Rd,"Gilbert, Arizona",United States,85296,33.35,-111.7892,#442c5c
"Coletta, Nina DPM Podiatry",Accent,8844 W. State Rd. 84,"Davie, Florida",United States,33324,26.0814,-80.2803,#442c5c
Collagen Aesthetics,Accent,110 East Main Street,"Flushing, Michigan",United States,48433,43.0631,-83.8511,#442c5c
Collective Beauty Salon And Spa,Accent,380 E Main St,"Westfield, Indiana",United States,46074-8924,40.0427,-86.1297,#442c5c
Colorado Ophthalmology and Cosmetics,Accent,10099 RidgeGate Pkwy,"Lone Tree, Colorado",United States,80124,39.5489,-104.8925,#442c5c
Colorado West Med Spa,Accent,2530 North 8th Street # 203,"Grand Junction, Colorado",United States,81501,39.0667,-108.5667,#442c5c
Columbus Integrative Family Medicine Center,Accent,453 Waterbury Ct,"Columbus, Ohio",United States,43230,39.9833,-82.9833,#442c5c
Comfort Laser Clinic,Accent,18587 Brookhurst St,"Fountain Valley, California",United States,92708,33.7107,-117.9457,#442c5c
Community Dermatology,Accent,"845 Sir Thomas Ct., Suite 1","Harrisburg, Pennsylvania",United States,17109-4843,40.2697,-76.8756,#442c5c
Compass Cellular Healing,Accent,4525 Harding Pike,"Nashville, Tennessee",United States,37205-2120,36.1667,-86.7833,#442c5c
Complete family Care,Accent,"2500 W 4th St, STE 6","Wilmington, Delaware",United States,19805,39.7458,-75.5467,#442c5c
"Complete Health Care Service, Inc",Accent,315 W. Houston St,"Jasper, Texas",United States,75951,30.9222,-93.9989,#442c5c
Complete Laser Clinic*,Accent,3114 E Burma Rd.,"Nebo, North Carolina",United States,28761,35.7107,-81.9297,#442c5c
Comprehensive Family Medical,Accent,"100 Craig Road, Unit 110","Manalapan Township, New Jersey",United States,7726,40.3062,-74.3755,#442c5c
Comprehensive Family Medicine,Accent,205 Medical Circle,"West Columbia, South Carolina",United States,29169,33.988,-81.0729,#442c5c
Comprehensive Health Center,Accent,41 East 8th Streat,Chicago,United States,60605,41.8832,-87.6324,#442c5c
Concentrek Account Test2,Accent,12345 Somewhere St,"Toledo, Ohio",United States,43604,41.6656,-83.5753,#442c5c
Concorde Medical Group,Accent,316 East 30th Street,New York City,United States,10016,40.713,-74.0072,#442c5c
"Connorabby, LLC",Accent,755 Telshor Blvd. C 202,"Las Cruces, New Mexico",United States,88011,32.3144,-106.7789,#442c5c
"Contour Medical, LLC",Accent,3345 S. Val Vista Road #103,"Gilbert, Arizona",United States,85297-7331,33.35,-111.7892,#442c5c
Corwin Thomas Cardiology,Accent,802 E Farrel Rd.,"Lafayette, Louisiana",United States,70508,30.2213,-92.0188,#442c5c
"Cosmedic Infusion, PC",Accent,Dr. Nicholas Busillo,"Drexel Hill, Pennsylvania",United States,19026,39.9495,-75.3074,#442c5c
Cosmedica,Accent,1 Rue Holiday,Pointe-Claire,Canada,H9R 5N3,45.45,-73.8167,#442c5c
Cosmedx Comfort,Accent,45 Central Ave,"Tenafly, New Jersey",United States,7670,40.9272,-73.9668,#442c5c
Cosmetic and Wellness Associates of Naples,Accent,1250 Pine Ridge Road,"Naples, Florida",United States,34108,26.15,-81.8,#442c5c
"Cosmetic Care Center, LLC",Accent,4100 West 50th Street,"Edina, Minnesota",United States,55424,44.9105,-93.3487,#442c5c
Cosmetic Care Clinic-Brantford,Accent,205-207 Brant Avenue,Brantford,Canada,N3T 3J1,43.1394,-80.2636,#442c5c
Cosmetic Enhancement Center of New England,Accent,1375 Congress Street,"Portland, Maine",United States,4102,43.6592,-70.2565,#442c5c
Cosmetic Health And Laser Center of Opelousas,Accent,P.O. Box 84664,"Baton Rouge, Louisiana",United States,70884,30.4495,-91.0934,#442c5c
Cosmetic Laser Center,Accent,2611 Harrison Street #700,"Wichita Falls, Texas",United States,76308-1361,33.9098,-98.5009,#442c5c
Cosmetic Laser Vein Centre,Accent,1504 - 15th Avenue SW,Calgary,Canada,T3C 0X9,51.0473,-114.058,#442c5c
"Cosmetic Surgery Associates, Inc",Accent,"1063 E. Main Street, #225","Wailuku, Hawaii",United States,96793,20.8919,-156.5022,#442c5c
Couture Dermatology And Plastic Surgery,Accent,2615 Box Canyon Drive,Las Vegas,United States,89128,36.1691,-115.1406,#442c5c
Creations In Skin Care Inc.,Accent,12608 97 Ave,"Surrey, British Columbia",Canada,V3V 2E9,49.1046,-122.8235,#442c5c
"Crowley, McKay B MD",Accent,1450 Thornhill Ln,"Winston-Salem, North Carolina",United States,27106,36.1028,-80.2605,#442c5c
Culture Grooming Lounge,Accent,2419 11th Avenue,"Regina, Saskatchewan",Canada,S4P 0K4,50.4547,-104.6067,#442c5c
"CuraMed, LLC",Accent,"Goldfarb, Richard MD & Falcone Vickie MD","Cherry Hill, New Jersey",United States,8034,39.9046,-74.997,#442c5c
Cypress Medical Clinic,Accent,"12344 Barker Cypress, Suite 150","Cypress, Texas",United States,77429,29.9733,-95.6873,#442c5c
D.R. Laser,Accent,1949 E. Bart St,"Gilbert, Arizona",United States,85295,33.35,-111.7892,#442c5c
Da Vinci Medical Management,Accent,1840 Anderson Mill Rd,"Austell, Georgia",United States,30106,33.8132,-84.6347,#442c5c
Dakouny Internal Medicine,Accent,"3400 Tamiami Trail, Ste 104","Port Charlotte, Florida",United States,33952,26.9819,-82.1011,#442c5c
"Dallas Associated Dermatologists, P.A.",Accent,"5924 Royal Lane, Suite 208",Dallas,United States,75230,32.7758,-96.7967,#442c5c
Dallas Men's Health,Accent,6021 Van Horn Lane,"Frisco, Texas",United States,75034,33.1414,-96.8131,#442c5c
"Dan L. Bennett, MD, P.C.",Accent,4601 W. 109th Ste 340,"Overland Park, Kansas",United States,66211,38.9822,-94.6708,#442c5c
Danesh Dermatology and Laser Surgery,Accent,240 S LA CIENEGA BLVD STE 400,"Beverly Hills, California",United States,90211,34.0803,-118.4047,#442c5c
Daniels Group,Accent,33 Overlook Rd Ste 403,"Summit, New Jersey",United States,7901,40.7156,-74.3647,#442c5c
Danyo and Gillespie Plastic Surgery,Accent,4001  Kennett Pike Ste 234,"Greenville, Delaware",United States,19807,39.775,-75.5967,#442c5c
Dao Medical Group- Dep Aesthetics Institute,Accent,9191 Westminster Avenue Suite 203,"Garden Grove, California",United States,92844,33.7789,-117.9603,#442c5c
Dardur Gynecology,Accent,19150 Kedzie Ave STE 100,"Homewood, Illinois",United States,60430,41.5572,-87.6656,#442c5c
"Darryl W. Hein, MD",Accent,15215 National Ave. Suite 200,"Los Gatos, California",United States,95032,37.2361,-121.9617,#442c5c
"David K. Funt, MD",Accent,19 Irving Place,"Woodmere, New York",United States,11598,40.6361,-73.7194,#442c5c
David W. Spinks,Accent,3350 Fairview St.,"Pasadena, Texas",United States,77504-1904,29.6761,-95.1739,#442c5c
"Davilla, David MD",Accent,12814 Willow Centre Dr.,Houston,United States,77066,29.7628,-95.3831,#442c5c
Dawn Campbell,Accent,7352 New Burns Place,"New Port Richey, Florida",United States,34655,28.2489,-82.7178,#442c5c
De La Mer Salon,Accent,2437 Merrick Road,Bellmore,United States,11710,40.6611,-73.5378,#442c5c
"DEAD - Morphosis, LLC-DEAD",Accent,5353 Almaden Expressway,"San Jose, California",United States,95118,37.3333,-121.9,#442c5c
Deborah Longwill MD,Accent,7700 Southwest 104th Street,"Pinecrest, Florida",United States,33156,25.6667,-80.3,#442c5c
"Deborah Schultz, M.D.",Accent,201 Flamingo Drive,"Apollo Beach, Florida",United States,33572,27.7719,-82.4108,#442c5c
Decatur Internal Medicine and Aesthetics,Accent,2506 Danville Rd SW Suite 101,"Decatur, Alabama",United States,35603,34.6058,-86.9833,#442c5c
Dee Schore,Accent,5319 Willis Ave,Dallas,United States,75206,32.7758,-96.7967,#442c5c
Defying Time Med Spa,Accent,5011 E Interstate 20 Service Rd S,"Willow Park, Texas",United States,76087-3219,32.7539,-97.65,#442c5c
"Deirdre McMullen, M.D.",Accent,3281 Rocky Creek Dr,"Missouri City, Texas",United States,77459,29.5828,-95.5394,#442c5c
Del Mar Medical Cosmetic Centers,Accent,12845 Pt Del Mar Way # 100,"Del Mar, California",United States,92014,32.955,-117.2639,#442c5c
Dennis E. Robinson DO dba Marshfield Family Clinic,Accent,487 Pomme De Terre Dr.,"Marshfield, Missouri",United States,65706-2386,37.3373,-92.9063,#442c5c
Derma Med Advanced Medical Ctr.,Accent,1303 South Linden Rd. #F,"Flint, Michigan",United States,48532,43.0099,-83.6851,#442c5c
Derma Medical Spa Olympia,Accent,3025 Limited Lane NW,"Olympia, Washington",United States,98502,47.0425,-122.8931,#442c5c
Derma Naissance,Accent,Suite 200 116 Rue Principale,"Granby, Quebec",Canada,J2G 2V2,45.3985,-72.7231,#442c5c
Dermace Advanced Skin Care Clinic,Accent,"6633 Highway 7 East, Suite # 303","Markham, Ontario",Canada,L3P 7P2,43.8833,-79.25,#442c5c
DermaContour,Accent,"1181 Hunt Club Rd",Ottawa,Canada,K1V 8S4,45.4204,-75.6924,#442c5c
Dermaferme,Accent,1575 Boulevard de L'Avenir,"Laval, Quebec",Canada,H7S 2N5,45.5833,-73.75,#442c5c
Dermagnify,Accent,"100 Executive Way","Ponte Vedra Beach, Florida",United States,32082,30.2428,-81.3828,#442c5c
Dermalaser Esthetic Mecical Clinic,Accent,79 Sackville Street,Shediac,Canada,E4P 2R1,46.2167,-64.5333,#442c5c
Dermaniche Inc,Accent,"6435 Erin Mills Parkway",Mississauga,Canada,L5N 4H4,43.6,-79.65,#442c5c
Dermaskin,Accent,136 Rue St Louis,"Saint-Eustache, Quebec",Canada,J7R 1Y2,45.5735,-73.8728,#442c5c
Dermatology and Aesthetics of Wicker Park,Accent,"1455 N. Milwaukee Ave, 2nd Floor",Chicago,United States,60622,41.8832,-87.6324,#442c5c
Dermatology and Dermatological Surgery,Accent,5045 US Hwy 130 South # C,"Delran Township, New Jersey",United States,8075,40.013,-74.9474,#442c5c
Dermatology And Laser Surgery in New York,Accent,955 Park Avenue,New York City,United States,10028,40.713,-74.0072,#442c5c
Dermatology Associates of Oxford,Accent,705 Sisk Ave,"Oxford, Mississippi",United States,38655-3413,34.3597,-89.5261,#442c5c
Dermatology Care of Alabama,Accent,4960 Rice Mine Rd Ne,"Tuscaloosa, Alabama",United States,35404,33.2065,-87.5346,#442c5c
Dermatology Institute,Accent,"256 Landis Ave, 3rd Floor","Chula Vista, California",United States,91910-2650,32.6401,-117.084,#442c5c
Dermatology Institute of S Florida,Accent,200 Capri Isles Blvd Ste 7d,"Venice, Florida",United States,34292,27.1,-82.4333,#442c5c
Dermatology Laser Center And Spa,Accent,1605 Redwood Rd,"San Marcos, Texas",United States,78666,29.8821,-97.94,#442c5c
Dermbar Medspa,Accent,85 Declaration Drive,"Chico, California",United States,95973,39.74,-121.8356,#442c5c
Dermelite,Accent,381 Kent Street Suite 508,Ottawa,Canada,K2P 2A8,45.4204,-75.6924,#442c5c
DermFX,Accent,16501 Pacific Coast Hwy,"Sunset Beach, California",United States,90742,33.7163,-118.0695,#442c5c
Desert Bloom Healthcare,Accent,1173 S 250 W,"St. George, Utah",United States,84770,37.0953,-113.5781,#442c5c
"DeShawndranique Gray, OBGYN",Accent,"7999 W. Virginia Drive, Suite C.",Dallas,United States,75237,32.7758,-96.7967,#442c5c
Desirable Skin,Accent,4532 East Lone Mountain Rd. Unit 107,"Cave Creek, Arizona",United States,85331,33.8322,-111.9519,#442c5c
Destino Bella,Accent,755 S. Telshor,"Las Cruces, New Mexico",United States,88011,32.3144,-106.7789,#442c5c
Devine Image Aesthetics,Accent,13132 Newport Avenue STE 200,"Tustin, California",United States,92780,33.7397,-117.8136,#442c5c
Diamond Springs Wellness Center,Accent,210 E Main St,"Midway, Utah",United States,84049,40.5144,-111.4772,#442c5c
Diamond State Primary Care,Accent,1400 Peoples Plaza,"Newark, Delaware",United States,19702,39.6792,-75.7581,#442c5c
Diego G. Allende A Medical Corp,Accent,6234 N First St,"Fresno, California",United States,93711,36.7317,-119.7859,#442c5c
"Divine Beauty Aesthetics, LLC",Accent,1000 White Rock Road,"El Dorado Hills, California",United States,95762,38.7025,-121.0824,#442c5c
Divine IV and Wellness,Accent,2231 E Pecos Rd #4,"Chandler, Arizona",United States,85225,33.3023,-111.8401,#442c5c
Divine Laser Spa,Accent,"55 Dusk Drive",Brampton,Canada,L6Y 5Z6,43.6833,-79.7667,#442c5c
DKLA,Accent,11159 Tampa Ave,"Northridge, Los Angeles",United States,91326,34.2283,-118.5358,#442c5c
DM Studio,Accent,"101 East Expressway 83, STE 180","McAllen, Texas",United States,78501,26.1967,-98.2357,#442c5c
"Dobry, Mary MD",Accent,"4765 Carmel Mountain Road, Suite 201",San Diego,United States,92130,32.715,-117.1625,#442c5c
Dr Beri DDS Pllc,Accent,46169 Westlake Dr.,"Sterling, Virginia",United States,20165,39.0061,-77.4286,#442c5c
Dr Joseph King,Accent,1217 Florida Dr ,"Arlington, Texas",United States,76015-2380,32.7356,-97.1071,#442c5c
Dr Matthew Barker,Accent,1100 N Kimball Ave Suite 130,"Southlake, Texas",United States,76092,32.9467,-97.1453,#442c5c
Dr Thomas Bellavia,Accent,288 Boulevard,"Hasbrouck Heights, New Jersey",United States,7604,40.8628,-74.0752,#442c5c
Dr. Ana Escura de Feltes,Accent,"45 W 132nd St",New York City,United States,10037,40.713,-74.0072,#442c5c
Dr. Claude Resil,Accent,599 Pleasant Street,"Brockton, Massachusetts",United States,2301,42.0833,-71.0189,#442c5c
Dr. Dusan Sajic Medicine Professional Corporation,Accent,107-89 Dawson Road,Guelph,Canada,N1H 1B1,43.5448,-80.2481,#442c5c
Dr. Gary M. Critser D.O.,Accent,1885 E Alluvial Ave Ste. 101,"Fresno, California",United States,93720,36.7317,-119.7859,#442c5c
Dr. Irv's Body Shop,Accent,2144 Lynden,"Highland Park, Illinois",United States,60035,42.1825,-87.8069,#442c5c
"Dr. J.J. Dubec MD, Inc.",Accent,4619 Napier Street,Burnaby,Canada,V5C 3H6,49.2432,-122.9742,#442c5c
Dr. Jacques Charbonneau,Accent,200 Rue Montcalm,Gatineau,Canada,J8Y 3B5,45.491,-75.6592,#442c5c
Dr. Janice Newsome,Accent,4023 River Park Drive,"Washington, Virginia",United States,23435,38.7135,-78.1598,#442c5c
Dr. John Cole,Accent,1070 Powers Place,"Alpharetta, Georgia",United States,30009,34.0733,-84.2811,#442c5c
Dr. John Farella,Accent,666 Lexington Avenue,"Mount Kisco, New York",United States,10549-3638,41.2078,-73.7272,#442c5c
Dr. John McGoff dba Med Spa 121,Accent,"121 Monument Circle",Indianapolis,United States,46204-2921,39.791,-86.148,#442c5c
Dr. Kochert Pain and Health,Accent,3218 Daugherty Dr STE 110,"Lafayette, Indiana",United States,47909,40.4173,-86.8906,#442c5c
Dr. Louis Bucky,Accent,200 West Montgomery Ave.,"Ardmore, Pennsylvania",United States,19003,40.0067,-75.2853,#442c5c
Dr. Louis Iorio,Accent,"5 Professional Circle, Suite # 107","Colts Neck Township, New Jersey",United States,07722-2429,40.2939,-74.1683,#442c5c
Dr. Mark Harter,Accent,237-A Longvue Drive,"Boone, North Carolina",United States,28607,36.204,-81.6694,#442c5c
Dr. Marlene Mash,Accent,545 West Germantown Pike,"Plymouth Meeting, Pennsylvania",United States,19462,40.1086,-75.2825,#442c5c
Dr. May-Ling Jang Lim Inc.,Accent,104-515 Main Street,Vancouver,Canada,V6A 2V1,49.2636,-123.1386,#442c5c
Dr. Mohan Cheema,Accent,158 Lockwood Ave.,"New Rochelle, New York",United States,10801,40.9286,-73.7842,#442c5c
Dr. Pamela Kennedy,Accent,1355 Thomaswood Drive,"Tallahassee, Florida",United States,32308,30.4407,-84.2783,#442c5c
Dr. Paul Glat,Accent,191 Presidential Blvd,"Bala Cynwyd, Pennsylvania",United States,19004,40.0093,-75.2309,#442c5c
Dr. Raja Nalluri,Accent,2100 South Tamiami Trail,"Sarasota, Florida",United States,34239,27.3372,-82.5353,#442c5c
Dr. Ronald Bush,Accent,44300 Monterey Ave.,"Palm Desert, California",United States,92260,33.7289,-116.3825,#442c5c
Dr. Ryan Novak,Accent,,"Burr Ridge, Illinois",United States,60527,41.7531,-87.92,#442c5c
Dr. Sivakumar Nagamuttu Medicine Professional Corporation,Accent,"9889 Markham Rd., Unit 8","Markham, Ontario",Canada,L6E 0B7,43.8833,-79.25,#442c5c
Dr. Solomon M. Yigazu,Accent,"800 Austin Street #269 ","Evanston, Illinois",United States,60202,42.0464,-87.6947,#442c5c
Dr. Stephanie Menes,Accent,6619 forest hill drive suite 30,"Forest Hill, Texas",United States,76140,32.6633,-97.2683,#442c5c
Dr. V. Sharon Jones,Accent,211 East Thompson Street,"Thomaston, Georgia",United States,30286-5411,32.8872,-84.3262,#442c5c
"Dr. Vimal Patel, MD DBA Mashpee Family Medicine",Accent,"5 Industrial Drive","Mashpee, Massachusetts",United States,2649,41.649,-70.4812,#442c5c
Dr. W.E. Furniss,Accent,"4800 NE Stallings Dr","Nacogdoches, Texas",United States,75965,31.6089,-94.6508,#442c5c
Drew Patrick Day Spa,Accent,128 West Main Street,"Bay Shore, New York",United States,11706,40.7297,-73.2536,#442c5c
DuPage Medical Group,Accent,1100 W 31st Street,"Downers Grove, Illinois",United States,60515-5512,41.7947,-88.0169,#442c5c
DVSP Management Inc.,Accent,17 Main St17 Main St,"Robbinsville (CDP), New Jersey",United States,8691,40.2183,-74.628,#442c5c
Dy Dermatology Center,Accent,"at Carillon Square","Glenview, Illinois",United States,60025,42.0794,-87.8156,#442c5c
East Valley Institute of Technology,Accent,1601 W. Main St.,"Mesa, Arizona",United States,85201,33.4152,-111.8315,#442c5c
Edgebrook Dermatology,Accent,1639 N. Alpine,"Rockford, Illinois",United States,61107-1440,42.2594,-89.0644,#442c5c
"Edward Tangchitnob, MD, Inc.",Accent,1135 South Sunset Ave STE 401,"West Covina, California",United States,91790,34.0567,-117.9186,#442c5c
"Edwin Choi, MD",Accent,4560 Beach Blvd. #B,"Buena Park, California",United States,90621,33.8628,-118.0025,#442c5c
EFFLORESSENCE,Accent,1126 boul. de Maisonneuve Est,Montreal,Canada,H2L 1Z5,45.5091,-73.5534,#442c5c
EK Esthétique Kristina,Accent,156 boul. Saint-Anne,Sainte-Anne-des-Plaines,Canada,J0N 1H0,45.7608,-73.8138,#442c5c
El Paso Mens Clinic,Accent,125 W Hague Rd,"El Paso, Texas",United States,79902,31.7903,-106.4233,#442c5c
Electrolysis and Co.,Accent,1420 North Greenfield Road,"Gilbert, Arizona",United States,85234,33.35,-111.7892,#442c5c
Eleganz Medical Spa,Accent,3970 W 24th St. #203,"Yuma, Arizona",United States,85364,32.7223,-114.6209,#442c5c
Elevate Medical Aesthetics and Wellness,Accent,413 Howard St,"Petoskey, Michigan",United States,49770,45.3733,-84.9553,#442c5c
Elite Family Medical Center,Accent,1183 E Foothill Blvd STE 135,"Upland, California",United States,91786,34.0999,-117.647,#442c5c
Elite Health,Accent,4302 Alton Road,"Miami Beach, Florida",United States,33140,25.813,-80.1341,#442c5c
Elite Medical Center,Accent,500 East Remington Dr Suite 20,"Sunnyvale, California",United States,94087,37.3711,-122.0375,#442c5c
Elite Medspa (formerly Beverly Hills Rejuvenation Center),Accent,7001 N Scottsdale Rd #164,"Scottsdale, Arizona",United States,85253,33.5,-111.9333,#442c5c
Elite Plastic Surgery,Accent,10910 Tatum Blvd #100,"Phoenix, Arizona",United States,85028,33.45,-112.0667,#442c5c
Elite Skin Center,Accent,3418 North Tarrant Pkwy,"Fort Worth, Texas",United States,76177,32.7499,-97.3303,#442c5c
Elite Solutions Inc.,Accent,124 Parkinson Crescent,"Orangeville, Ontario",Canada,L9W 6X3,43.9192,-80.0974,#442c5c
"Elkins, James P. MD",Accent,201 S 19th street,"Rogers, Arkansas",United States,72758,36.3294,-94.1414,#442c5c
Elsa's Esthetics,Accent,5000 New Street Unit #6,"Burlington, Ontario",Canada,L7L 1V1,43.325,-79.8,#442c5c
Emily's Medical Spa,Accent,230 Avocado Ave,"El Cajon, California",United States,92020,32.8009,-116.9614,#442c5c
Encompass Wellness and Aesthetics,Accent,910 NW 139th St. PKWY,"Edmond, Oklahoma",United States,73013,35.65,-97.4667,#442c5c
"Endocrine Clinic Of Louisiana, apmc",Accent,PO Box 53386,"Lafayette, Louisiana",United States,70505,30.2213,-92.0188,#442c5c
"Endoscopy Center of the North Shore, LLC",Accent,1732 Central St,"Evanston, Illinois",United States,60201,42.0464,-87.6947,#442c5c
"ENHANCE AESTHETICS & WELLNESS, P.L.L.C",Accent,324 S Main St,"Yuma, Arizona",United States,85364,32.7223,-114.6209,#442c5c
Enhance your Natural Beauty,Accent,1715 S. Morgan Road,Oklahoma City,United States,73128-7005,35.4822,-97.535,#442c5c
Enlighten MedSpa,Accent,4248 Town Center Blvd #4,"Orlando, Florida",United States,32837,28.5383,-81.3789,#442c5c
Enlightened Health Direct,Accent,"5901 South Cooper Street, Suite 101","Arlington, Texas",United States,76017,32.7356,-97.1071,#442c5c
ENT Specialists,Accent,4000 S 700 E Suite 10,Salt Lake City,United States,84107,40.75,-111.8833,#442c5c
EnteBella Medical,Accent,13090 N 94th Dr.,"Peoria, Arizona",United States,85381,33.5825,-112.2386,#442c5c
Envision Cosmetic Surgery,Accent,5417 S Commerce Dr STE 100,"Murray, Utah",United States,84107,40.6525,-111.8933,#442c5c
Envy Aesthetics Inc.,Accent,13158 Tecumseh Rd. East,"Windsor, Ontario",Canada,N8N 3T6,42.3141,-83.0369,#442c5c
Envy Clinic and Spa LLC,Accent,"5040 W US Highway 52, STE D","New Palestine, Indiana",United States,46163,39.7209,-85.8891,#442c5c
Envy Me Medi Spa,Accent,31 King St. Unit 3,Barrie,Canada,L4N 6B5,44.3893,-79.6855,#442c5c
Erikson Family Practice,Accent,1411 N. 1070 E.,"Shelley, Idaho",United States,83274,43.3831,-112.122,#442c5c
Ernest Khoury MD,Accent,5452 Glen Lakes Dr,Dallas,United States,75230,32.7758,-96.7967,#442c5c
Essence Aesthetics and Health,Accent,99 E Bremer Ave,"Waverly, Iowa",United States,50677-3317,42.7257,-92.4756,#442c5c
Essence Skin Clinic,Accent,1640 W Center St,"Rochester, Minnesota",United States,55902,44.0234,-92.463,#442c5c
Essentia Health-Fargo,Accent,1702 South University Drive,"Fargo, North Dakota",United States,58103,46.877,-96.7846,#442c5c
Essential Aesthetics and Laser,Accent,8145 Ardrey Kell Rd,"Charlotte, North Carolina",United States,28277,35.2238,-80.8411,#442c5c
Essential Beauty Med Spa,Accent,26730 Towne Centre Drive #202,"Foothill Ranch, California",United States,92610,33.6885,-117.6643,#442c5c
Esteem Medical Esthetics,Accent,"500 Manning Rd. Suite 4,","Tecumseh, Ontario",Canada,N8N 2L9,42.3167,-82.8862,#442c5c
Esthetica of San Diego,Accent,"12845 Pointe Del Mar Way","Del Mar, California",United States,92014,32.955,-117.2639,#442c5c
Esthetique Jade,Accent,11325 7e Av,"Saint-Georges, Quebec",Canada,G5Y 1J9,46.1202,-70.6732,#442c5c
Eternal Beauty Skin and Laser,Accent,20630 Stevens Creek Blvd,"Cupertino, California",United States,95117,37.3175,-122.0419,#442c5c
Eternity Laser,Accent,9332-127A St,"Surrey, British Columbia",Canada,V3V-6C7,49.1046,-122.8235,#442c5c
Ethos Med spa,Accent,89 Summit Ave,"Summit, New Jersey",United States,7901,40.7156,-74.3647,#442c5c
European Skincare Institute,Accent,6038 Camp Bowie Blvd,"Fort Worth, Texas",United States,76116,32.7499,-97.3303,#442c5c
EuroScape Spa,Accent,102-572 Stewart Ave,Nanaimo,Canada,V9K 1S9,49.1642,-123.9364,#442c5c
"Evan Saunders, MD",Accent,2901 W KK River Pkwy.,Milwaukee,United States,53215-3677,43.05,-87.95,#442c5c
Ever After Laser  Vitality,Accent,22 Meldrum,Kitimat,Canada,V8C 2L3,54,-128.7,#442c5c
Everest Medspa,Accent,1010 W Chester Pike,"Havertown, Pennsylvania",United States,19083,39.9763,-75.3117,#442c5c
Evergreen Laser Inc,Accent,3230 W 95th Street,"Evergreen Park, Illinois",United States,60805-2314,41.7226,-87.7031,#442c5c
Evolve 360 Salon and Medspa,Accent,"8400 Racing Lane, Unit B","Navarre, Florida",United States,32566,30.401,-86.863,#442c5c
Evolve Weight And Age Management,Accent,330 Mayfield Drive Ste C-4,"Franklin, Tennessee",United States,37067,35.9292,-86.8575,#442c5c
Express Med Urgent Care PLLC,Accent,19725 West 12 Mile Rd,"Southfield, Michigan",United States,48076,42.4733,-83.2219,#442c5c
"Eye Clinics of Illinois dba Ophthalmology Consultants of Illinois, SC",Accent,11845 SW Hwy Unit 12,"Palos Heights, Illinois",United States,60463,41.6653,-87.7972,#442c5c
FaceGym - SAKS,Accent,,New York City,United States,10022,40.713,-74.0072,#442c5c
FaceGym LLC - West Hollywood,Accent,8490 Sunset Blvd,"West Hollywood, California",United States,90069,34.0907,-118.3718,#442c5c
FaceGym NOHO - Broadway,Accent,,New York City,United States,10012,40.713,-74.0072,#442c5c
FaceGym Nordstrom,Accent,236 W 58th St,New York City,United States,10019,40.713,-74.0072,#442c5c
FaceGym NYC - 1427 2nd AVE,Accent,1427 2nd Ave,New York City,United States,10021,40.713,-74.0072,#442c5c
Facial Plastic And Laser Surgery,Accent,11326 R - North Trail Dr,"Dunlap, Illinois",United States,61525,40.8608,-89.6781,#442c5c
Facial Plastic Surgery,Accent,1838 Greene Tree Road #370,Baltimore,United States,21208,39.2833,-76.6167,#442c5c
Facial Techniques Ltd,Accent,8140 Walnut Hill Lane # 601,Dallas,United States,75231,32.7758,-96.7967,#442c5c
Family Health Care,Accent,1410 Brickyard Rd,"Chipley, Florida",United States,32428-5966,30.7792,-85.5392,#442c5c
Family Healthcare of Atlanta,Accent,1935 Howell Mill Rd. N.W.,Atlanta,United States,30318,33.7485,-84.3915,#442c5c
Family Laser And Dental,Accent,"7455 Cross County Rd,","North Charleston, South Carolina",United States,29418,32.8853,-80.0169,#442c5c
Family Physician of Columbus,Accent,"6801 River Road, Ste 301","Columbus, Georgia",United States,31904,32.4922,-84.9403,#442c5c
Farghaly Medical PLLC,Accent,3100 US 1 N,"St. Augustine, Florida",United States,32086,29.8947,-81.3144,#442c5c
Fast Clinical Weight Loss,Accent,10234 E Us Highway 36,"Avon, Indiana",United States,46123,39.7631,-86.3878,#442c5c
Fastrac Minor Emergency Clinic,Accent,PO BOX 2317,"Mount Pleasant, Texas",United States,75455,33.1578,-94.97,#442c5c
Fedok Plastic Surgery,Accent,113 E Fern Ave,"Foley, Alabama",United States,36535-2806,30.4056,-87.6815,#442c5c
FIELDS FAMILY CARE,Accent,96 Tara Commons Drive,"Loganville, Georgia",United States,30052,33.8389,-83.8981,#442c5c
Fine Arts Skin and Laser Facial Plastic Surgery,Accent,335 Oxford St,"Dover, Ohio",United States,44622-1970,40.5267,-81.4778,#442c5c
Fit for Life Wellness Center,Accent,8196 N. Delman,"Fresno, California",United States,93711,36.7317,-119.7859,#442c5c
Fit Life MD,Accent,"10103 West Loop 1604N, Suite 105",San Antonio,United States,78254-9716,29.4167,-98.5,#442c5c
Fit Life Med Spa,Accent,990 E Riggs Rd.,"Chandler, Arizona",United States,85249,33.3023,-111.8401,#442c5c
Fitness Together,Accent,"5482 Chamblee Dunwoody Rd.","Dunwoody, Georgia",United States,30338-4142,33.9428,-84.3178,#442c5c
Five springs health and wellness,Accent,246 North Absaroka Street,"Powell, Wyoming",United States,82435,44.7589,-108.7583,#442c5c
Flash Laser Aesthetics,Accent,17401 Ventura Blvd. B9,"Encino, Los Angeles",United States,91316,34.1588,-118.4994,#442c5c
Flawless MedSpa,Accent,271 Main Street,"Stoneham, Massachusetts",United States,2180,42.48,-71.1002,#442c5c
Flawless Salon and Medical Spa,Accent,4655 Harrison Avenue,"Butte, Montana",United States,59701-6966,46.0128,-112.5356,#442c5c
Fleur de peau,Accent,4895 Boul Saint Laurent,Montreal,Canada,H2T 1R6,45.5091,-73.5534,#442c5c
Flor Mayoral MD,Accent,"6705 Red Road, Ste 314","Coral Gables, Florida",United States,33143,25.75,-80.2711,#442c5c
Flower Mound Plastic Surgery,Accent,2560 Central Park Ave Suite 200,"Flower Mound, Texas",United States,75028,33.0317,-97.0789,#442c5c
Foot and Leg Clinic LLC,Accent,1533 Watson Blvd,"Warner Robins, Georgia",United States,31093-3449,32.6292,-83.6129,#442c5c
Foothills Primary aESTHETICS,Accent,13838 S 46th Place Suite 105,"Phoenix, Arizona",United States,85044,33.45,-112.0667,#442c5c
For Her Health SC,Accent,33 W Higgins Rd STE 800,"Barrington, Illinois",United States,60010-9136,42.1536,-88.1319,#442c5c
Fore Viva Medical Clinique,Accent,825 Oak Grove Ave D101,"Menlo Park, California",United States,94025,37.4528,-122.1833,#442c5c
Forever Beauty Medspa Clinic,Accent,47 Jacksonville Dr.,Brampton,Canada,L6P 2Z2,43.6833,-79.7667,#442c5c
Forever Young Medspa,Accent,2510 Warren Ave.,"Cheyenne, Wyoming",United States,82001-3163,41.1402,-104.8188,#442c5c
Fountain of Youth,Accent,6234 North Navarro,"Victoria, Texas",United States,77901,28.8169,-96.9933,#442c5c
"Frank Ryan, A Medical Corporation",Accent,9675 Brigton Way,"Beverly Hills, California",United States,90210-5155,34.0803,-118.4047,#442c5c
Freese Frame,Accent,116 W 4th Street,"Cedar Falls, Iowa",United States,50613,42.5235,-92.4464,#442c5c
Full Spectrum Clinic,Accent,3660 Park Sierra Dr. #110,"Riverside, California",United States,92505,33.9465,-117.3832,#442c5c
"Fully Armored Family Health and Fitness, Inc.",Accent,755 W Carmel Dr STE 150,"Carmel, Indiana",United States,46032,39.9667,-86.1,#442c5c
Future Bright Dermatology,Accent,"185 Canal Street",New York City,United States,10013,40.713,-74.0072,#442c5c
G Antoniak,Accent,308-1919 Riverside Dr.,Ottawa,Canada,K1H 1A2,45.4204,-75.6924,#442c5c
"Garcia, Rutilio M.D.",Accent,25 Medical Park,"Valley, Alabama",United States,36854,32.8114,-85.1779,#442c5c
Gary L Heller and Associates,Accent,7641 66th St N Ste A,"Pinellas Park, Florida",United States,33781,27.8522,-82.7072,#442c5c
Gaston Dumais,Accent,240 Myconos,Dollard-des-Ormeaux,Canada,H9G 2Y3,45.4833,-73.8167,#442c5c
Gemsag medical development inc,Accent,12204 Ventura Blvd,Los Angeles,United States,91604,34.0522,-118.2433,#442c5c
Gentle Touch Aesthetics,Accent,"901 Dover Drive, #122","Newport Beach, California",United States,92660,33.6167,-117.8975,#442c5c
Gentle Touch Skin and Laser Centres,Accent,1096 Queen Street,"Halifax, Nova Scotia",Canada,B3H 2R9,44.6462,-63.5736,#442c5c
"George, Thomas DMD (Deme LLC)",Accent,2200 Arch Street,Philadelphia,United States,19103,39.95,-75.1667,#442c5c
Georgian Medical Aesthetics,Accent,26 James St. Unit 4,"Parry Sound, Ontario",Canada,P2A 1T5,45.3333,-80.0333,#442c5c
Gestion Liber Inc.,Accent,105 boul. Concorde Est,"Laval, Quebec",Canada,H7G 2C1,45.5833,-73.75,#442c5c
"Glass, Cynthia MD",Accent,867I49 Service Rd.,"Sunset, Louisiana",United States,70584,30.4083,-92.0661,#442c5c
"Glasser, Stuart A. M.D.",Accent,916 Green Street,"Greensburg, Pennsylvania",United States,15601-4135,40.2978,-79.5422,#442c5c
Glendale Whole Health,Accent,230 North Maryland Avenue,"Glendale, California",United States,91206,34.1481,-118.2464,#442c5c
Glo Lasers and Med Spa,Accent,"19875 Southwest Freeway, Suite 100","Sugar Land, Texas",United States,77479,29.5971,-95.621,#442c5c
Glo Medical Spa,Accent,901 North Monroe,"Spokane, Washington",United States,99201,47.6589,-117.425,#442c5c
Global Smiles,Accent,1801 Professional Dr,"Sacramento, California",United States,95825,38.5556,-121.4689,#442c5c
Glow! Medical Spa,Accent,6677 West Thunderbird Rd. Bldg D,"Glendale, Arizona",United States,85306,33.5386,-112.1837,#442c5c
GOAT Athletic Spa,Accent,3561 W 11400 S,"South Jordan, Utah",United States,84095,40.5617,-111.9608,#442c5c
Gold Skin Care Center,Accent,2000 Richard Jones Rd.# 220,"Nashville, Tennessee",United States,37215,36.1667,-86.7833,#442c5c
"Goldberg, Kenneth MD",Accent,726 E 12200 S,"Draper, Utah",United States,84020,40.525,-111.8642,#442c5c
"Good Neighbor Family Practice And Geriatrics, PC",Accent,"133-38 41 Road","Flushing, Queens",United States,11355,40.7615,-73.8311,#442c5c
"Goodnight, James, M.D.",Accent,"505 Goffle Rd","Ridgewood, New Jersey",United States,07450-4027,40.9816,-74.1135,#442c5c
"Gordon Dixon, MD",Accent,1441 Parkway Dr,"Blackfoot, Idaho",United States,83221,43.19,-112.3461,#442c5c
Grace Golea DBA Sylk Beauty Laser,Accent,1087 Anna Maria Ave,Innisfil,Canada,L9S 1W2,44.3,-79.5833,#442c5c
Grace Medical Aesthetics,Accent,3501 S Clarkson St,"Englewood, Colorado",United States,80113,39.6494,-104.9889,#442c5c
Granite Bay Cosmetic Surgery,Accent,5220 Douglas Blvd,"Granite Bay, California",United States,95746,38.7486,-121.1797,#442c5c
Graves-Gilbert Clinic,Accent,PO Box 90007,"Bowling Green, Kentucky",United States,42101-9007,36.9817,-86.4444,#442c5c
Greeneville Dermatology PC,Accent,1404 Tusculum Boulevard,"Greeneville, Tennessee",United States,37745,36.1622,-82.8315,#442c5c
"Gregory K. Louie DDS, PC",Accent,520 La Gonda Way,"Danville, California",United States,94526,37.8217,-122,#442c5c
Grube Gynecology,Accent,219 S Balliet St,"Frackville, Pennsylvania",United States,17931,40.7838,-76.2304,#442c5c
Guita Tabassi DO LTD,Accent,6080 S. Fort Apache Rd Ste 110,Las Vegas,United States,89148,36.1691,-115.1406,#442c5c
Gwinnett General Medical,Accent,1180 McKendree Church Road,"Lawrenceville, Georgia",United States,30043-5207,33.9531,-83.9925,#442c5c
Gynecological Solutions,Accent,"349 US Highway #206","Hillsborough Township, New Jersey",United States,8844,40.4977,-74.6705,#442c5c
H2 Laser and Skin,Accent,8440 Rea Rd,"Charlotte, North Carolina",United States,28277,35.2238,-80.8411,#442c5c
"Haber Dermatology, Inc.",Accent,"26949 Chagrin Blvd, STE 300","Beachwood, Ohio",United States,44122-4278,41.4793,-81.4978,#442c5c
Hair A Go-Go,Accent,1000 Dallas Road Suite 104,"Chattanooga, Tennessee",United States,37405,35.0456,-85.2672,#442c5c
Hair Loss Solution,Accent,855 Dieppe Boulevard Unit 5,"Dieppe, New Brunswick",Canada,E1A 8S6,46.0737,-64.7021,#442c5c
Hair Oh Yeah / Amanda Wright (Mandy),Accent,1700 116th Ave NE Ste 100,"Bellevue, Washington",United States,98004,47.6137,-122.1909,#442c5c
Hair Restoration Clinic of Granite Bay,Accent,"8870 Auburn Folsom Road, Suite C","Granite Bay, California",United States,95746,38.7486,-121.1797,#442c5c
"Haley Dermatology, LLC",Accent,202 Rock Creek PKWY,"Fairhope, Alabama",United States,36532,30.5272,-87.903,#442c5c
Hall Plastic Surgery and Rejuvenation Center,Accent,"300 Beardsley Lane, Bldg C, Suite 101","Austin, Texas",United States,78746,30.265,-97.7466,#442c5c
Hamilton Dermatology,Accent,11800 Atlantis Place,"Alpharetta, Georgia",United States,30022,34.0733,-84.2811,#442c5c
"Hanna Facial Cosmetic Surgery, Ltd.",Accent,820 Merrill Woods Rd.,"Hinsdale, Illinois",United States,60521,41.8006,-87.9281,#442c5c
Harold A. Lancer M.D. FAAD A Medical Corp.,Accent,440 N. Rodeo Drive,"Beverly Hills, California",United States,90210-4502,34.0803,-118.4047,#442c5c
Hartley Miltchin,Accent,4430 Bathhurst St. Suite 503,Toronto,Canada,M3H 3S3,43.6519,-79.3817,#442c5c
Hatef Aesthetics,Accent,6200 TN 100,"Nashville, Tennessee",United States,37205-4252,36.1667,-86.7833,#442c5c
Haven Med Spa,Accent,470 Del Norte Avenue,"Yuba City, California",United States,95991,39.1347,-121.6261,#442c5c
Haven Yorkville LLC,Accent,120 E. Countryside Parkway,"Yorkville, Illinois",United States,60560,41.6414,-88.4469,#442c5c
Healing Arts and Aesthetics,Accent,1482 E. Valley Rd #114,"Santa Barbara, California",United States,93108,34.4209,-119.6983,#442c5c
Healing Touch Laser and Spa,Accent,478 Clearmont School Road,"Burnsville, North Carolina",United States,28714,35.9186,-82.2975,#442c5c
Health and Wellness of Carmel LLC,Accent,11900 N Pensylvania St,"Carmel, Indiana",United States,46032-4694,39.9667,-86.1,#442c5c
Health Direction Medical Center S.C.,Accent,1656 W Chicago Ave,Chicago,United States,60622-2224,41.8832,-87.6324,#442c5c
Health Expressions,Accent,1708 Shilling Lane,"Silver Spring, Maryland",United States,20906,38.9977,-77.027,#442c5c
Health First,Accent,16061 Bear Valley Rd #7,"Hesperia, California",United States,92345-1702,34.4274,-117.3148,#442c5c
Health Horizons,Accent,1455 Bells Ferry Road,"Marietta, Georgia",United States,30066,33.9523,-84.5491,#442c5c
Health Horizons,Accent,4801 McMahon Blvd NW,"Albuquerque, New Mexico",United States,87114,35.1107,-106.61,#442c5c
Healthcare For Women,Accent,250 San Jose St,"Salinas, California",United States,93901,36.6778,-121.6556,#442c5c
Heart and Vascular Clinic,Accent,68 Omega Drive Suite D,"Newark, Delaware",United States,19713,39.6792,-75.7581,#442c5c
Heart Care Consultants,Accent,5600 Chestnut Street,Philadelphia,United States,19139,39.95,-75.1667,#442c5c
Heavenwood Medi Spa,Accent,2393 Topsail Road,Conception Bay South,Canada,A1W 2G9,47.5167,-52.9833,#442c5c
"Heba Farag, MD, Inc.",Accent,27725 Santa Margarita Parkway #141,"Mission Viejo, California",United States,92691,33.6128,-117.6561,#442c5c
"Helene Aisenstat, MD",Accent,"13690 U.S. 441","Lady Lake, Florida",United States,32159,28.9292,-81.9308,#442c5c
Heriberto Fernandez MD,Accent,7500 Northwest 25th Street,"Doral, Florida",United States,33122,25.8081,-80.3533,#442c5c
Heritage Beauty Salon,Accent,3665 Heritage Dr.,"Abbotsford, British Columbia",Canada,V2T6X8,49.0546,-122.328,#442c5c
"Heritage Family Dentist, PA",Accent,5110 Heritage Ave,"Colleyville, Texas",United States,76034-5910,32.885,-97.1492,#442c5c
Hermann Wellness,Accent,3040 W. Cypress St. Suite 103,"Tampa, Florida",United States,33609,27.9474,-82.4588,#442c5c
"Hidden Youth Wellness Center, LLC",Accent,2921 BROWN TRAIL,"Bedford, Texas",United States,76021-4205,32.8467,-97.1397,#442c5c
High Desert Skin Center,Accent,15366 11th Street,"Victorville, California",United States,92392-3726,34.5361,-117.2911,#442c5c
"HILLSIDE MEDICAL CLINIC, LLC",Accent,118 N Main St Suite B,"Salem, Utah",United States,84653,40.0506,-111.6725,#442c5c
Hippocrates Health Institute,Accent,1466 Hippocrates Way,"West Palm Beach, Florida",United States,33411,26.7144,-80.0549,#442c5c
Hollywood Dermatology and Cosmetic Surgery Specialists,Accent,"3850 Hollywood Boulevard, Ste 301","Hollywood, Florida",United States,33021,26.0118,-80.1391,#442c5c
Honolulu Elite,Accent,1441 Kapiolani Blvd,Honolulu,United States,96814,21.3099,-157.8582,#442c5c
Honolulu Medspa,Accent,1650 Lilihia St.,Honolulu,United States,96817,21.3099,-157.8582,#442c5c
Honu Nani,Accent,1524 MCHENRY AVE STE 100,"Modesto, California",United States,95350,37.6614,-120.9944,#442c5c
Hootan Zandifar MD,Accent,8920 Wilshire Blvd #604,"Beverly Hills, California",United States,90211-2006,34.0803,-118.4047,#442c5c
Hope Hair Recovery,Accent,10-140 105th St E,Saskatoon,Canada,S7N1Z3,52.1333,-106.6833,#442c5c
HOPE Medical Spa,Accent,Dr. Nadia Chaudhry,"Marlton, New Jersey",United States,8053,39.8914,-74.9221,#442c5c
Horizons Medical Care,Accent,8045 Hwy 72 W,"Madison, Alabama",United States,35758-9564,34.7151,-86.7396,#442c5c
House Calls Regalado LLC,Accent,7251 Brickland Ct,Las Vegas,United States,89117,36.1691,-115.1406,#442c5c
Howard Sobel MD PC,Accent,960 A Park Ave,New York City,United States,10028,40.713,-74.0072,#442c5c
HRT Management Corp,Accent,1130 Victory Boulevard,Staten Island,United States,10301,40.5808,-74.1528,#442c5c
Hudes Concierge Medicine LLC,Accent,5400 Laurel Springs Pkwy Unit 1404,"Suwanee, Georgia",United States,30024,34.0575,-84.0666,#442c5c
"Humberto Varela, MD",Accent,506 Gale Street,"Laredo, Texas",United States,78041-6003,27.5244,-99.4906,#442c5c
Hummingbird MediSpa - Bank Street,Accent,1379 Bank Street,Ottawa,Canada,K1H 8N3,45.4204,-75.6924,#442c5c
Hush Medical Aesthetics,Accent,PO Box 125,"Buckingham, Pennsylvania",United States,18912,40.323,-75.06,#442c5c
IContour Anti Aging Center,Accent,283 Dartmouth Street,Boston,United States,2116,42.3581,-71.0636,#442c5c
Idaho Collective Wellness,Accent,353 W Iowa,"Nampa, Idaho",United States,83686,43.5747,-116.5636,#442c5c
Idaho Health and Hormone,Accent,2667 E Gala Ct,"Meridian, Idaho",United States,83642,43.6142,-116.3989,#442c5c
Idaho Spine and Pain,Accent,1859 S TOPAZ WAY,"Meridian, Idaho",United States,83642,43.6142,-116.3989,#442c5c
Ideally You Weight Loss Center,Accent,4279 Haines Rd,"Hermantown, Minnesota",United States,55811,46.8069,-92.2383,#442c5c
iLashnBrows,Accent,14 W Camelback Rd. Suite B,"Phoenix, Arizona",United States,85013,33.45,-112.0667,#442c5c
ILCO Inc.,Accent,"200, Montcalm, Suite 302",Gatineau,Canada,J8Y 3B5,45.491,-75.6592,#442c5c
Illinois Wellness and Weight Loss Centers,Accent,"9933 South Western Ave., #200",Chicago,United States,60643,41.8832,-87.6324,#442c5c
Illuminate Plastic Surgery,Accent,"2400 Samaritan Drive, Suite #206","San Jose, California",United States,95124,37.3333,-121.9,#442c5c
Illusions Beauty and Wellness Inc.,Accent,39 Munsie Dr.,"Nobleton, Ontario",Canada,L7B 0N8,43.9022,-79.6527,#442c5c
Image Plastic Surgery,Accent,1760 Termino Avenue # 207,"Long Beach, California",United States,90804-2169,33.7683,-118.1956,#442c5c
Imber Medical LLC,Accent,1620 Frederica Rd,"St. Simons, Georgia",United States,31522,31.1369,-81.3954,#442c5c
Impression Medspa,Accent,8230 Boone Blvd,"Vienna, Virginia",United States,22182,38.9035,-77.2628,#442c5c
Indian Wells Family Practice,Accent,2474 Indian Wells Rd,"Alamogordo, New Mexico",United States,88310,32.9004,-105.9605,#442c5c
Infinite Wellness and Aesthetics,Accent,"45 Forest Falls Drive","Yarmouth, Maine",United States,04096-6999,43.8006,-70.1867,#442c5c
"Infinity Med Spa and Infusion Center, LLC",Accent,"1239 Hartford Ave., Ste 1","Johnston, Rhode Island",United States,2919,41.8167,-71.4833,#442c5c
Infinity Medspa,Accent,27019 McBean Pkwy,"Valencia, Santa Clarita, California",United States,91355,34.4545,-118.5712,#442c5c
Infocus Urgent Care,Accent,100 Campus Town Circle,"Ewing Township, New Jersey",United States,8638,40.2627,-74.7983,#442c5c
Ingleside Family Dental,Accent,,"North Charleston, South Carolina",United States,29456,32.8853,-80.0169,#442c5c
"Ingrid E. Trenkle, MD",Accent,124 E Olive Ave,"Redlands, California",United States,92373,34.0547,-117.1825,#442c5c
Injection Gal,Accent,4600 Aberfeldy Rd,"Reno, Nevada",United States,89519-0944,39.5272,-119.8219,#442c5c
Inland Vascular Institute,Accent,801 S. Stevens,"Spokane, Washington",United States,99204,47.6589,-117.425,#442c5c
Innovative Eye Care/Eastside Optical,Accent,PO Box 117,"Renton, Washington",United States,98057,47.4867,-122.1953,#442c5c
Innovative Wellness LLC,Accent,7100 N High St STE 201,"Worthington, Ohio",United States,43085-2370,40.0914,-83.0208,#442c5c
Inspire Med Spa,Accent,9220 Haven Avenue,"Rancho Cucamonga, California",United States,91730,34.1233,-117.5794,#442c5c
Inspire Medical Spa,Accent,"6686 South Highland Drive, STE 108","Cottonwood Heights, Utah",United States,84121,40.6163,-111.8105,#442c5c
INSPIRE WELLNESS AND AESTHETICS,Accent,1825 Georgia 34E,"Newnan, Georgia",United States,30265,33.3764,-84.7886,#442c5c
Inspire-Wave Therapeutics,Accent,"980 Westfall Rd., Ste 110","Rochester, New York",United States,14618,43.1656,-77.6114,#442c5c
Instinct Holistic Medical Spa,Accent,"300 N Willson Ave, Suite 2003","Bozeman, Montana",United States,59715,45.6793,-111.0466,#442c5c
Institut De Beaute,Accent,"1675, Rue Principale""","Sainte-Julie, Quebec",Canada,J3E 1W7,45.5971,-73.3352,#442c5c
Institut Eterna Jouvence Inc.,Accent,400 E Rue Principal,Montreal,Canada,J0P 1Z0,45.5091,-73.5534,#442c5c
Institut Euforia Sur Rive,Accent,19820 Boul Gouin O,"Pierrefonds, Quebec",Canada,H9K 1B4,45.4594,-73.8817,#442c5c
Institut MC Inc.,Accent,8479 Boul. Newman,"LaSalle, Quebec",Canada,H8N 2Y7,45.4283,-73.6483,#442c5c
"Institute for Health and Wellness, LLC",Accent,115 Baker Dr,"Tomball, Texas",United States,77375,30.0972,-95.616,#442c5c
Institute for Wellness,Accent,218 SW Atlanta Avenue,"Stuart, Florida",United States,34994,27.1922,-80.2431,#442c5c
Integral Laser Spa,Accent,428 E. Jefferson Blvd Suite 103,Dallas,United States,75203-5605,32.7758,-96.7967,#442c5c
Integrated Health Center,Accent,2324 Post Road,"Fairfield, Connecticut",United States,6824,41.1758,-73.2719,#442c5c
Integrative Dermatology,Accent,6100 Glades Road,"Boca Raton, Florida",United States,33434,26.3686,-80.1,#442c5c
Integrative Healthcare Center,Accent,300 South State St #5,"Zeeland, Michigan",United States,49464,42.8125,-86.0186,#442c5c
Integrative Medical Solutions,Accent,65 S Saints Blvd,"Edmond, Oklahoma",United States,73034-3051,35.65,-97.4667,#442c5c
Integrative Medicine of Idaho,Accent,"250 Bobwhite Court","Boise, Idaho",United States,83706,43.6158,-116.2016,#442c5c
Integrative Rejuvenation,Accent,4001 E Baseline Rd Suite 104,"Gilbert, Arizona",United States,85234,33.35,-111.7892,#442c5c
Integrative Wellness Center,Accent,1243  E Broad St,"Columbus, Ohio",United States,43205-1404,39.9833,-82.9833,#442c5c
Integrity Medical Physicans,Accent,"1333 3rd Ave S","Naples, Florida",United States,34102-6538,26.15,-81.8,#442c5c
Internal and Family Medicine,Accent,3303 E Baseline Rd STE 203,"Gilbert, Arizona",United States,85234,33.35,-111.7892,#442c5c
International Skin Center,Accent,370 Dairy Rd.,"Kahului, Hawaii",United States,96732,20.888,-156.4679,#442c5c
Intuitive Women's Health,Accent,803 New Road,"Somers Point, New Jersey",United States,8244,39.3161,-74.6068,#442c5c
Iowa Wellness Center,Accent,1395 Jordan Street,"North Liberty, Iowa",United States,52317,41.7411,-91.6076,#442c5c
Ira Fine MD,Accent,10075 Jog Road,"Boynton Beach, Florida",United States,33437,26.5281,-80.0764,#442c5c
Issa Institute For Holistic Health,Accent,128 Thunderbird Dr,"El Paso, Texas",United States,79912,31.7903,-106.4233,#442c5c
Ivey Family Medicine,Accent,"2905 S Walton Blvd, Ste 17","Bentonville, Arkansas",United States,72712,36.3667,-94.2133,#442c5c
J and J Aesthetics,Accent,5323 4th Ave Circle East,"Bradenton, Florida",United States,34208,27.489,-82.5628,#442c5c
J Palacios PLLC,Accent,11148 Robin Park Avenue,Las Vegas,United States,89138,36.1691,-115.1406,#442c5c
Jackie Briles,Accent,511 SW 10th Ave Suite 1305,"Portland, Oregon",United States,97205,45.52,-122.6819,#442c5c
Jade Health,Accent,10730 Ketchum Valley Drive,"Riverview, Florida",United States,33579,27.8735,-82.3201,#442c5c
James Fontaine MD Inc.,Accent,91 Red Cypress Ct,"Danville, California",United States,94506,37.8217,-122,#442c5c
"James Newman, MD,PC",Accent,50 S. San Mateo Drive,"San Mateo, California",United States,94401,37.5472,-122.3144,#442c5c
James Watt Medical Center,Accent,"11331 James Watt Rd, Bldg 100","El Paso, Texas",United States,79936-6410,31.7903,-106.4233,#442c5c
Jann M. Reyes,Accent,"5330 Alpha Road, Suite 100",Dallas,United States,75240,32.7758,-96.7967,#442c5c
"Jason Emer, MD P.C.",Accent,9201 W. Sunset Blvd. Suite 414,"West Hollywood, California",United States,90069,34.0907,-118.3718,#442c5c
"Javier Alonso M.D., Ph.D., P.A.",Accent,"TVV Medispa","Corpus Christi, Texas",United States,78411,27.7428,-97.4019,#442c5c
Jennz Day Spa,Accent,"300 South Main Street, Suite 106","Weatherford, Texas",United States,76086,32.7575,-97.8145,#442c5c
"Jeong, Eric MD",Accent,21050 Golden Springs Dr #115,"Diamond Bar, California",United States,91789,34.0017,-117.8208,#442c5c
JJ Miracle Plastic Surgery,Accent,"1245 W Huntington Dr, Ste 212,","Arcadia, California",United States,91007,34.1328,-118.0364,#442c5c
John D Williams,Accent,608 S Hester St.,"Stillwater, Oklahoma",United States,74074-4516,36.1102,-97.0586,#442c5c
"Johnson, Franklin MD",Accent,90 Main Street,"Mineola, New York",United States,11501-4035,40.7472,-73.6381,#442c5c
Jose Gutauskas,Accent,107-770 Broadview Avenue,Ottawa,Canada,K2A 3Z3,45.4204,-75.6924,#442c5c
Joseph A. Russo Cosmetic and Surgery Center,Accent,"575 Boylston St., 2nd FL","Newton, Massachusetts",United States,2459,42.3369,-71.2097,#442c5c
JOSIANIZ LTD. o/a DermAce Advanced SkinCare Clinic,Accent,6633 Hwy 7 East #303,"Markham, Ontario",Canada,L3P 7P2,43.8833,-79.25,#442c5c
JP Aesthetics,Accent,3183 Wilshire Blvd Ste 182A,Los Angeles,United States,90010,34.0522,-118.2433,#442c5c
Judes Medical Center LTD,Accent,10506 S. Roberts Rd.,"Palos Hills, Illinois",United States,60465-1934,41.6992,-87.8264,#442c5c
Juva Skin and Laser Center,Accent,60 East 56th St,New York City,United States,10022,40.713,-74.0072,#442c5c
Juvy Derm Skin Care,Accent,5401 Temple Dr NE,Calgary,Canada,T1Y 3R7,51.0473,-114.058,#442c5c
"K Brown Aesthetics, LLC",Accent,42 Steeple Run Way,"Savannah, Georgia",United States,31405,32.0167,-81.1167,#442c5c
Kaceli Dental Aesthetics,Accent,1400 Centre St Ste 102,"Newton, Massachusetts",United States,2459,42.3369,-71.2097,#442c5c
Kalologie Brentwood,Accent,11924 San Vicente Blvd.,Los Angeles,United States,90049,34.0522,-118.2433,#442c5c
Kalologie Thousand Oaks,Accent,2200 E Thousand Oaks Blvd,"Thousand Oaks, California",United States,91362,34.1894,-118.875,#442c5c
KAO Institute,Accent,"900 Wilshire Blvd., Suite 100","Santa Monica, California",United States,90401,34.0219,-118.4814,#442c5c
Kaplan Cosmetic Surgery,Accent,Dr. Barry Kaplan,"Winter Park, Florida",United States,32789,28.6002,-81.3388,#442c5c
Karen Mayer,Accent,#2-389 Collett Road.,Kelowna,Canada,V1W 3A3,49.8801,-119.4436,#442c5c
Karyn Grossman MD,Accent,2001 Santa Monica Blvd #1250W,"Santa Monica, California",United States,90404-2050,34.0219,-118.4814,#442c5c
"Keller, Gregory MD",Accent,221 West Pueblo St.,"Santa Barbara, California",United States,93105-6809,34.4209,-119.6983,#442c5c
"Kelly Boulden, MD PLLC",Accent,1565 West Magnolia Ave,"Fort Worth, Texas",United States,76104,32.7499,-97.3303,#442c5c
"Kelsom Clinic, PA",Accent,1202 West Pioneer Dr,"Irving, Texas",United States,75061,32.8117,-96.9508,#442c5c
Key Laser Institute for Aesthethic Medicine,Accent,9555 S.W. Barnes Rd.,"Portland, Oregon",United States,97225,45.52,-122.6819,#442c5c
Kimberly Kim,Accent,9001 Golf Road,"Des Plaines, Illinois",United States,60016,42.0339,-87.8997,#442c5c
Kimberly's Total Image,Accent,5 Sharon's PL,"Dartmouth, Nova Scotia",Canada,B2W 3V1,44.6715,-63.5714,#442c5c
King Concierge Medicine,Accent,"4425 Jamboree Road, #120","Newport Beach, California",United States,92660,33.6167,-117.8975,#442c5c
Kolla Sai S MD,Accent,135 Bloomfield Avenue,"Bloomfield, New Jersey",United States,7003,40.8091,-74.1872,#442c5c
"Kovak Medical Services, Inc. DBA Midwest Dermatologic Laser And Vein Centre",Accent,"1200 S. York Road, Ste 4180","Elmhurst, Illinois",United States,60126,41.9021,-87.94,#442c5c
KP Aesthetics,Accent,4675A W Chester Pike,"Newtown Township, Delaware County, Pennsylvania",United States,19073,39.9868,-75.3991,#442c5c
Krauss Dermatology,Accent,1 Washington St,"Wellesley, Massachusetts",United States,2481,42.2964,-71.2931,#442c5c
"Kulick, Marina M.D.",Accent,703 South Pinellas Ave.,"Tarpon Springs, Florida",United States,34689-3709,28.1462,-82.7566,#442c5c
Kuraoka Clinic,Accent,"1640 Powers Ferry Road","Marietta, Georgia",United States,30067,33.9523,-84.5491,#442c5c
La Bella Spa,Accent,3505 N. Courtenay Parkway,"Merritt Island, Florida",United States,32953,28.3543,-80.7002,#442c5c
La Belle Chique,Accent,2800 Niles Rd,"St. Joseph, Michigan",United States,49085,42.0981,-86.4842,#442c5c
La Laser and Skin Center,Accent,10884 Santa Monica Blvd 3rd Floor,Los Angeles,United States,90025,34.0522,-118.2433,#442c5c
LA Laser Niagara,Accent,4190 Kalar Road,"Niagara Falls, Ontario",Canada,L2H 1S8,43.1167,-79.0667,#442c5c
La Mesa Medical Hair Restoration,Accent,5565 Grossmont Center Drive STE 461,"La Mesa, California",United States,91942,32.7714,-117.0228,#442c5c
La Quinta MedSpa,Accent,"72780 Country Club Drive","Rancho Mirage, California",United States,92270,33.7692,-116.4211,#442c5c
Lakeview Family Health Care PC,Accent,2090 N. Smoketree Ave.,"Lake Havasu City, Arizona",United States,86403,34.49,-114.3089,#442c5c
Lam Facial Plastic Surgery Center Inc dba Lumaire Laser Center,Accent,6101 Chapel Hill Blvd. Suite 202,"Plano, Texas",United States,75093,33.0197,-96.6992,#442c5c
Lang Family Medicine,Accent,289 Lonesome Dove Trail,"Hurst, Texas",United States,76054,32.8236,-97.1793,#442c5c
"Larry S. Moy, MD, Inc. / Ocean skin and vein institute",Accent,1101 Sepulveda Blvd.,"Manhattan Beach, California",United States,90266-5962,33.8851,-118.4097,#442c5c
Larson Family Medicine and Medical Aesthetics,Accent,"16122 8th Avenue SW, Suite E5","Burien, Washington",United States,98166,47.4683,-122.3456,#442c5c
Laser Aesthetics,Accent,2180 Itabashi Way,"Burlington, Ontario",Canada,L7M 5A5,43.325,-79.8,#442c5c
Laser and Anti-Aging Center of South Jersey,Accent,Dr. Nadia Chaudhry,"Marlton, New Jersey",United States,8053,39.8914,-74.9221,#442c5c
"Laser and Skin Surgery Center of Indiana, PC",Accent,13400 N Meridian,"Carmel, Indiana",United States,46032,39.9667,-86.1,#442c5c
Laser and Wellness Center,Accent,222 NE park Plaza Drive,"Vancouver, Washington",United States,98607,45.6333,-122.6,#442c5c
Laser Away,Accent,875 Dakota Street,Winnipeg,Canada,R2M 5S5,49.8994,-97.1392,#442c5c
Laser Bar,Accent,535 Bryne Dr. C3,Barrie,Canada,L4N 9P6,44.3893,-79.6855,#442c5c
Laser Center of Carson Valley,Accent,"1524 US Hwy 395, Ste 2","Gardnerville, Nevada",United States,89410-5233,38.9408,-119.7436,#442c5c
Laser Center of Milford,Accent,232 Boston Post Road,"Milford, Connecticut",United States,6460,41.2243,-73.0576,#442c5c
Laser Cosmetica,Accent,71 Nassau St,New York City,United States,10038,40.713,-74.0072,#442c5c
Laser Derm Clinic,Accent,227 Sunset Dr.,"Brownsville, Texas",United States,78520-7313,25.9303,-97.4844,#442c5c
Laser Ely,Accent,758 place de l'Alouette,Saint-Lin–Laurentides,Canada,J5M 0J4,45.85,-73.7667,#442c5c
Laser Esthtica,Accent,1650 Lead Hill Blvd.,"Roseville, California",United States,95661,38.7525,-121.2894,#442c5c
Laser Institute for Dermatology,Accent,2021 Santa Monica Blvd.,"Santa Monica, California",United States,90404,34.0219,-118.4814,#442c5c
Laser Light Skin Clinic,Accent,15316 N May Ave,"Edmond, Oklahoma",United States,73013,35.65,-97.4667,#442c5c
Laser Med Solutions,Accent,,"Scottsdale, Arizona",United States,85253,33.5,-111.9333,#442c5c
"Laser Skin And Vein Center of Virginia, P.C.",Accent,933 First Colonial Road,"Washington, Virginia",United States,23454,38.7135,-78.1598,#442c5c
Laserlicious Inc,Accent,,Brampton,Canada,M9R 2Y8,43.6833,-79.7667,#442c5c
Lavoro Laser,Accent,43 Quail Court,"Walnut Creek, California",United States,94596,37.9064,-122.065,#442c5c
"Lawrence Desjarlais, MD PC",Accent,2000 Curtis Rd,"Adrian, Michigan",United States,49221,41.8975,-84.0372,#442c5c
"Lawrence Osman, M.D.",Accent,18546 Roscoe Blvd. #306,"Northridge, Los Angeles",United States,91324,34.2283,-118.5358,#442c5c
LazerDoc,Accent,2531 S 4th St,"Leavenworth, Kansas",United States,66048,39.3275,-94.919,#442c5c
Lazur La Vie,Accent,267 A Main Street,"Nyack, New York",United States,10960,41.0925,-73.9225,#442c5c
"Levy, Barbara S., MD",Accent,34503 9th Avenue # 330,"Federal Way, Washington",United States,98003-8726,47.3152,-122.3347,#442c5c
Leyla Derysavi-Jorfian,Accent,365 Eglinton Ave West,Toronto,Canada,M5N 1A3,43.6519,-79.3817,#442c5c
Liebman Wellness Center,Accent,100 Old Marlton Pike West,"Evesham Township, New Jersey",United States,8053,39.8567,-74.9008,#442c5c
LifeHope Healing Med Spa,Accent,"3333 Old Milton Pkwy, Ste 100","Alpharetta, Georgia",United States,30005,34.0733,-84.2811,#442c5c
LifePath LLC,Accent,3300 Holcomb Bridge Road Ste 226ko,"Peachtree Corners, Georgia",United States,30092,33.9756,-84.2178,#442c5c
LifeSpan Center for Integrative Medicine,Accent,13911 Ridgedale Drive #395,"Minnetonka, Minnesota",United States,55305,44.9133,-93.5033,#442c5c
Lifetime Family and Urgent Care,Accent,5801 Argerian Drive,"Wesley Chapel, Florida",United States,33545,28.1814,-82.3512,#442c5c
Lifetime Fitness,Accent,2902 Corporate Place,"Chanhassen, Minnesota",United States,55317-4560,44.863,-93.5401,#442c5c
LightTouch Laser Clinic,Accent,90 Reynolds Street,"Oakville, Ontario",Canada,L6J 3K2,43.45,-79.6833,#442c5c
Lighttouch USA Hold Co LLC,Accent,163 East Morse Blvd. Suite: 105,"Winter Park, Florida",United States,32789,28.6002,-81.3388,#442c5c
Ligia Teisan DBA Empire Spa,Accent,8 Lisa Street Apt. 707,Brampton,Canada,L6T 4S6,43.6833,-79.7667,#442c5c
"Linda D Chiu, MD Inc.",Accent,407 Uluniu St. # 212,"Kailua, Hawaii",United States,96734-2537,21.3975,-157.7394,#442c5c
Linda Marie's Beauty Clinic,Accent,69 King Street West,"Stoney Creek, Ontario",Canada,L8G 1H9,43.2213,-79.7401,#442c5c
Linda Woodson Dermatology,Accent,2800 N Tenaya Way Ste 203,Las Vegas,United States,89128,36.1691,-115.1406,#442c5c
Lipogenex LLC,Accent,1893 E. Loma Vista Dr,"Tempe, Arizona",United States,85282,33.4294,-111.9431,#442c5c
LIPOSUCTION INSTITUTE,Accent,1 S. 365 Summit Ave,"Oakbrook Terrace, Illinois",United States,60181,41.8536,-87.9683,#442c5c
"Lisa D. Tucker, MD, PA",Accent,2510 N. 12th Ave,"Pensacola, Florida",United States,32503,30.4069,-87.2176,#442c5c
Lite Touch Medical Spa Virginia (CLOSED),Accent,"4211 Pleasant Valley Road, Suite 200","Chantilly, Virginia",United States,20151,38.875,-77.4025,#442c5c
Lite Touch NY Inc.,Accent,Mark Greenspan,New York City,United States,10005,40.713,-74.0072,#442c5c
LiveLight Clinic,Accent,"9650 Commerce Dr","Carmel, Indiana",United States,46032,39.9667,-86.1,#442c5c
LL Blossoms Cosmetic Clinic,Accent,3808 Union Street 3i,"Flushing, Queens",United States,11354,40.7615,-73.8311,#442c5c
Lloyd Dermatology And Laser Center,Accent,8060 Market Street,"Youngstown, Ohio",United States,44512-6241,41.1,-80.65,#442c5c
Lloydminster Laser And Vein Clinic,Accent,5120-46th Street,Lloydminster,Canada,T9V 2P7,53.2783,-110.005,#442c5c
Locust Grove Family Medicine,Accent,3778 Georgia 42,"Locust Grove, Georgia",United States,30248,33.3434,-84.1068,#442c5c
Look Younger MD,Accent,2610 W. HORIZON RIDGE PKWY SUITE 100,"Henderson, Nevada",United States,89052,36.0292,-115.0253,#442c5c
Looking Good™ Cosmetic Skin Centre,Accent,113-501 Bethel Drive,Sherwood Park,Canada,T8H 0N2,53.5197,-113.3074,#442c5c
Los Gatos Laser and Skin Care,Accent,"15055 Los Gatos Blvd., Suite 250","Los Gatos, California",United States,95032-2025,37.2361,-121.9617,#442c5c
Lotus Family Wellness and Aesthetics,Accent,1240 Highway 138 Southwest,"Riverdale, Georgia",United States,30296,33.5726,-84.4125,#442c5c
Louis P. Coates,Accent,5915 Murphy Rd,"Sachse, Texas",United States,75048,32.9764,-96.5861,#442c5c
Louise Bourget,Accent,1850 Vanier Boulevard Suite 101,"Bathurst, New Brunswick",Canada,E2A 7B7,47.6186,-65.6497,#442c5c
Louisiana Medical Clinic,Accent,"10466 Airline Highway, Suite C","Baton Rouge, Louisiana",United States,70816,30.4495,-91.0934,#442c5c
LTGKTB,Accent,124 South Morgan Street,"Tampa, Florida",United States,33602,27.9474,-82.4588,#442c5c
Lubna Ahmad,Accent,1005 Job Crescent,"Milton, Ontario",Canada,L9T 8v6,43.5135,-79.8828,#442c5c
Luminary MD,Accent,"62 Corporate Park, #245","Irvine, California",United States,92606,33.6694,-117.8231,#442c5c
Luminous Laser and Med Spa,Accent,2609 Arthur St. East,Thunder Bay,Canada,P7E 5P1,48.3822,-89.2461,#442c5c
Lundy Creative Enterprises dba Radiant Restoration RX,Accent,"7330 Fern Avenue, Suite 1103","Shreveport, Louisiana",United States,71105,32.5147,-93.7472,#442c5c
"Lush Investments, Inc.",Accent,2928 Oak Lawn Avenue,Dallas,United States,75219-4131,32.7758,-96.7967,#442c5c
Luxx Med Spa,Accent,41 E 300 N,"Spanish Fork, Utah",United States,84660-1882,40.1044,-111.64,#442c5c
Lynn Mortimore,Accent,2 Dacotach Ave.,Ottawa,Canada,M5J 2E5,45.4204,-75.6924,#442c5c
M Beauty By Tess,Accent,9888 Carroll Centre Road Ste 101,San Diego,United States,92126,32.715,-117.1625,#442c5c
M.T. Derme S.A.,Accent,435 St Helene,Longueuil,Canada,J4K 3R3,45.5338,-73.5152,#442c5c
MacDonald Healthcare,Accent,6515 W Clearwater Ave Ste 330,"Kennewick, Washington",United States,99336,46.2026,-119.117,#442c5c
Madsen Medical spa,Accent,19011 W. Valley Hwy Suite A-103,"Kent, Washington",United States,98032,47.3828,-122.2269,#442c5c
Magnolia Skin Care Clinic,Accent,9939 Magnolia Ave,"Riverside, California",United States,92503,33.9465,-117.3832,#442c5c
Maine Laser Skincare,Accent,438 U.S. 1,"Scarborough, Maine",United States,4074,43.5781,-70.3217,#442c5c
Majestic Aesthetics and Wellness,Accent,4076 Quail Ridge Drive,"Kimberly, Idaho",United States,83341-4009,42.5331,-114.3639,#442c5c
Man Kwan Beauty Center,Accent,8787 Woodbine Ave. Unit 120,"Markham, Ontario",Canada,L3R 9S2,43.8833,-79.25,#442c5c
Mane Solution,Accent,415 New Karner Rd,"Albany, New York",United States,12205,42.6525,-73.7572,#442c5c
Manhattan Beauty Project by Dr. Pantazopoulos,Accent,31546 Railroad Canyon Rd,"Canyon Lake, California",United States,92587,33.6747,-117.2539,#442c5c
Mantra Health and Wellness,Accent,2222 West Orangeburg Avenue STE A2,"Modesto, California",United States,95355,37.6614,-120.9944,#442c5c
Maplewood Aesthetics,Accent,"1955 Springfield Ave.","Maplewood, New Jersey",United States,7040,40.7327,-74.2711,#442c5c
Marc Malek MD Plastic Surgery,Accent,"8438 East Shea Blvd.","Scottsdale, Arizona",United States,85260,33.5,-111.9333,#442c5c
"Maria Teresa Agner MD, Inc",Accent,410 32nd St.,"Newport Beach, California",United States,92663,33.6167,-117.8975,#442c5c
